borough,zip_code,latitude,longitude,on_street_name,number_of_persons_injured,number_of_persons_killed
BRONX,10472,40.829052000000004,-73.85038,CASTLE HILL AVENUE              ,1,0
QUEENS,11420,40.677303,-73.804565,135 STREET                      ,0,0
BROOKLYN,11203,40.651646,-73.93233000000001,EAST 48 STREET                  ,0,0
BROOKLYN,11203,40.652972999999996,-73.94400999999999,BROOKLYN AVENUE                 ,3,0
BRONX,10463,40.886536,-73.89985,WEST 240 STREET                 ,0,0
QUEENS,11419,40.686234000000006,-73.82418,LEFFERTS BOULEVARD              ,0,0
BRONX,10453,40.848255,-73.90975999999999,WALTON AVENUE                   ,0,0
BROOKLYN,11207,40.66322,-73.893654,PENNSYLVANIA AVENUE             ,8,0
QUEENS,11422,40.659714,-73.73981500000001,145 AVENUE                      ,0,0
STATEN ISLAND,10312,40.558887,-74.1977,ARDEN AVENUE                    ,1,0
BROOKLYN,11233,40.678894,-73.90347,TRUXTON STREET                  ,0,0
QUEENS,11417,40.676373,-73.84701,90 STREET                       ,0,0
QUEENS,11691,40.599243,-73.752495,BEACH 19 STREET                 ,0,0
BROOKLYN,11203,40.651733,-73.93039,UTICA AVENUE                    ,1,0
MANHATTAN,10013,40.71755,-73.99932,CANAL STREET                    ,0,0
BROOKLYN,11226,40.637221999999994,-73.9598,EAST 19 STREET                  ,1,0
MANHATTAN,10002,40.7224,-73.99165,CHRYSTIE STREET                 ,1,0
BRONX,10461,40.843212,-73.83894000000001,WATERS PLACE                    ,0,0
MANHATTAN,10033,40.84554,-73.93278000000001,WEST 177 STREET                 ,0,0
BROOKLYN,11206,40.702723999999996,-73.95002,HARRISON AVENUE                 ,0,0
BROOKLYN,11221,40.6889,-73.92726,PATCHEN AVENUE                  ,1,0
BRONX,10467,40.866046999999995,-73.87207,SOUTHERN BOULEVARD              ,0,0
MANHATTAN,10011,40.738552,-73.99969,WEST 14 STREET                  ,0,0
BRONX,10463,40.876503,-73.90456400000001,WEST 230 STREET                 ,0,0
MANHATTAN,10027,40.81269,-73.95313,WEST 127 STREET                 ,1,0
BRONX,10453,40.848637,-73.91169000000001,JEROME AVENUE                   ,3,0
STATEN ISLAND,10305,40.601006,-74.076454,STEUBEN STREET                  ,0,0
MANHATTAN,10011,40.73723,-74.000656,WEST 12 STREET                  ,0,0
MANHATTAN,10021,40.77373,-73.96401999999999,EAST 75 STREET                  ,0,0
MANHATTAN,10035,40.804066,-73.93267,EAST 127 STREET                 ,0,0
MANHATTAN,10019,40.762394,-73.97861,WEST 54 STREET                  ,0,0
BROOKLYN,11213,40.671032000000004,-73.93927,ALBANY AVENUE                   ,0,0
QUEENS,11101,40.751602,-73.93384,40 AVENUE                       ,0,0
QUEENS,11377,40.748146000000006,-73.90426,59 STREET                       ,1,0
BRONX,10470,40.895374,-73.86355999999999,EAST 233 STREET                 ,0,0
BROOKLYN,11219,40.639153,-73.99141999999999,44 STREET                       ,0,0
BROOKLYN,11228,40.61672,-74.018326,86 STREET                       ,1,0
BROOKLYN,11207,40.65772,-73.895386,LOUISIANA AVENUE                ,0,0
BROOKLYN,11215,40.67285,-73.97339000000001,8 AVENUE                        ,0,0
BROOKLYN,11234,40.63413,-73.928505,KINGS HIGHWAY                   ,0,0
QUEENS,11379,40.713947,-73.88422,71 STREET                       ,2,0
BRONX,10460,40.837864,-73.86355999999999,WHITE PLAINS ROAD               ,2,0
QUEENS,11419,40.686234000000006,-73.82418,LEFFERTS BOULEVARD              ,0,0
BROOKLYN,11205,40.698677,-73.95886,FRANKLIN AVENUE                 ,0,0
BRONX,10468,40.861346999999995,-73.897736,GRAND CONCOURSE                 ,0,0
MANHATTAN,10013,40.72135,-74.00465,CANAL STREET                    ,0,0
QUEENS,11416,40.686646,-73.849075,95 AVENUE                       ,0,0
BROOKLYN,11207,40.674114,-73.88975,GLENMORE AVENUE                 ,0,0
BRONX,10472,40.83265,-73.86366,WESTCHESTER AVENUE              ,0,0
QUEENS,11101,40.75201,-73.93016,NORTHERN BOULEVARD              ,0,0
BRONX,10469,40.866096,-73.83785,EAST GUN HILL ROAD              ,0,0
QUEENS,11422,40.636112,-73.7403,ROCKAWAY BOULEVARD              ,0,0
BROOKLYN,11235,40.58416,-73.95268,BAY COURT                       ,0,0
STATEN ISLAND,10312,40.529263,-74.18986,HUGUENOT AVENUE                 ,0,0
BROOKLYN,11236,40.63132,-73.902336,EAST 85 STREET                  ,0,0
BRONX,10459,40.820984,-73.891624,EAST 163 STREET                 ,0,0
QUEENS,11434,40.65616,-73.76736,BREWER BOULEVARD                ,0,0
MANHATTAN,10012,40.72235,-73.99327,BOWERY                          ,0,0
BROOKLYN,11229,40.5983,-73.94149,AVENUE V                        ,0,0
MANHATTAN,10033,40.852059999999994,-73.934784,WEST 184 STREET                 ,0,0
MANHATTAN,10031,40.822643,-73.953224,BROADWAY                        ,0,0
BROOKLYN,11223,40.609984999999995,-73.96239,AVENUE P                        ,0,0
BRONX,10467,40.8678,-73.86251,ARNOW AVENUE                    ,4,0
MANHATTAN,10007,40.713135,-74.00407,CENTRE STREET                   ,0,0
QUEENS,11369,40.758694,-73.87345,32 AVENUE                       ,0,0
MANHATTAN,10033,40.848735999999995,-73.93234,AUDUBON AVENUE                  ,0,0
MANHATTAN,10026,40.798126,-73.94832,WEST 112 STREET                 ,1,0
QUEENS,11365,40.73811,-73.78941999999999,184 STREET                      ,0,0
QUEENS,11429,40.707679999999996,-73.74512,110 AVENUE                      ,0,0
QUEENS,11370,40.773808,-73.8929,19 AVENUE                       ,0,0
QUEENS,11421,40.69283,-73.85468,90 STREET                       ,0,0
BROOKLYN,11209,40.62214,-74.02566999999999,85 STREET                       ,0,0
BRONX,10465,40.826797,-73.82236999999999,EAST TREMONT AVENUE             ,0,0
MANHATTAN,10025,40.79335,-73.97275,BROADWAY                        ,0,0
MANHATTAN,10012,40.72495,-73.99492,EAST HOUSTON STREET             ,0,0
MANHATTAN,10001,40.749590000000005,-74.00279,WEST 26 STREET                  ,0,0
BROOKLYN,11236,40.638363,-73.900116,EAST 93 STREET                  ,1,0
BRONX,10458,40.856809999999996,-73.89818000000001,VALENTINE AVENUE                ,1,0
BROOKLYN,11205,40.693515999999995,-73.96499,RYERSON STREET                  ,0,0
STATEN ISLAND,10312,40.533882,-74.16230999999999,WOODS OF ARDEN ROAD             ,1,0
STATEN ISLAND,10308,40.551563,-74.1453,AMBOY ROAD                      ,2,0
QUEENS,11375,40.721676,-73.835976,GRAND CENTRAL PARKWAY           ,0,0
STATEN ISLAND,10309,40.542965,-74.21845,BLOOMINGDALE ROAD               ,1,0
MANHATTAN,10017,40.756607,-73.97651,EAST 48 STREET                  ,0,0
BRONX,10455,40.817574,-73.90359000000001,UNION AVENUE                    ,0,0
BROOKLYN,11230,40.63524,-73.967636,18 AVENUE                       ,0,0
STATEN ISLAND,10305,40.589034999999996,-74.08988000000001,HYLAN BOULEVARD                 ,0,0
QUEENS,11419,40.695858,-73.81891,130 STREET                      ,1,0
BROOKLYN,11222,40.73046,-73.9515,GREENPOINT AVENUE               ,0,0
BRONX,10468,40.862716999999996,-73.9023,WEST FORDHAM ROAD               ,1,0
BRONX,10457,40.848927,-73.88816,EAST 181 STREET                 ,0,0
QUEENS,11428,40.715145,-73.74935,JAMAICA AVENUE                  ,1,0
BRONX,10472,40.82864,-73.85344,OLMSTEAD AVENUE                 ,0,0
BROOKLYN,11210,40.619186,-73.9493,AVENUE M                        ,0,0
STATEN ISLAND,10301,40.623055,-74.11327,CLOVE ROAD                      ,0,0
QUEENS,11379,40.712555,-73.89711,METROPOLITAN AVENUE             ,0,0
MANHATTAN,10006,40.710114000000004,-74.012665,GREENWICH STREET                ,0,0
BROOKLYN,11205,40.694687,-73.95521,SPENCER STREET                  ,0,0
BROOKLYN,11234,40.62877,-73.91825,RALPH AVENUE                    ,0,0
QUEENS,11420,40.686023999999996,-73.81087,133 STREET                      ,0,0
QUEENS,11360,40.777023,-73.77554,BELL BOULEVARD                  ,0,0
BROOKLYN,11238,40.67553,-73.96319,GRAND AVENUE                    ,0,0
MANHATTAN,10022,40.760418,-73.97584,WEST 53 STREET                  ,0,0
MANHATTAN,10011,40.738552,-73.99969,WEST 14 STREET                  ,0,0
BRONX,10452,40.844795,-73.92263,UNIVERSITY AVENUE               ,0,0
MANHATTAN,10016,40.74608,-73.97494499999999,EAST 36 STREET                  ,0,0
QUEENS,11379,40.720528,-73.87228,PENELOPE AVENUE                 ,2,0
BRONX,10452,40.8283,-73.92447,GERARD AVENUE                   ,0,0
BROOKLYN,11201,40.689243,-73.98873,SMITH STREET                    ,0,0
BROOKLYN,11238,40.685215,-73.95928,CLASSON AVENUE                  ,1,0
QUEENS,11101,40.753456,-73.941414,41 AVENUE                       ,0,0
MANHATTAN,10025,40.791496,-73.97224,WEST 92 STREET                  ,0,0
QUEENS,11429,40.70947,-73.74580999999999,HOLLIS AVENUE                   ,0,0
BROOKLYN,11233,40.684166,-73.92931,HALSEY STREET                   ,0,0
MANHATTAN,10018,40.75529,-73.99493000000001,9 AVENUE                        ,0,0
BROOKLYN,11226,40.639748,-73.952286,NEWKIRK AVENUE                  ,4,0
MANHATTAN,10018,40.75228,-73.9897,7 AVENUE                        ,2,0
MANHATTAN,10020,40.75927,-73.980896,WEST 49 STREET                  ,0,0
BROOKLYN,11232,40.660470000000004,-73.998024,4 AVENUE                        ,2,0
BROOKLYN,11235,40.577213,-73.96329,BRIGHTON BEACH AVENUE           ,0,0
BROOKLYN,11222,40.72552,-73.9575,MESEROLE AVENUE                 ,1,0
QUEENS,11101,40.744656,-73.94853,JACKSON AVENUE                  ,0,0
MANHATTAN,10035,40.802753,-73.93358,2 AVENUE                        ,1,0
QUEENS,11367,40.727272,-73.81718000000001,150 STREET                      ,0,0
QUEENS,11417,40.673747999999996,-73.84324000000001,CROSS BAY BOULEVARD             ,0,0
BRONX,10462,40.833557,-73.85774,WESTCHESTER AVENUE              ,0,0
STATEN ISLAND,10304,40.620968,-74.08431,YOUNG STREET                    ,0,0
MANHATTAN,10001,40.750206,-74.00234,10 AVENUE                       ,0,0
BROOKLYN,11209,40.635253999999996,-74.02832,OVINGTON AVENUE                 ,0,0
BROOKLYN,11234,40.6224,-73.936646,FLATBUSH AVENUE                 ,0,0
QUEENS,11420,40.666140000000006,-73.82326,NORTH CONDUIT AVENUE            ,0,0
MANHATTAN,10019,40.767918,-73.985725,WEST 57 STREET                  ,0,0
BROOKLYN,11210,40.633217,-73.954865,GLENWOOD ROAD                   ,1,0
QUEENS,11101,40.75207,-73.926476,NORTHERN BOULEVARD              ,0,0
BROOKLYN,11210,40.628646999999994,-73.95206999999999,BEDFORD AVENUE                  ,0,0
BROOKLYN,11218,40.633590000000005,-73.973656,AVENUE F                        ,1,0
STATEN ISLAND,10305,40.601006,-74.076454,STEUBEN STREET                  ,0,0
QUEENS,11432,40.715022999999995,-73.80765,PARSONS BOULEVARD               ,0,0
MANHATTAN,10009,40.726986,-73.98575600000001,1 AVENUE                        ,0,0
BROOKLYN,11230,40.619396,-73.969574,OCEAN PARKWAY                   ,0,0
QUEENS,11418,40.69869,-73.83806,86 AVENUE                       ,0,0
QUEENS,11360,40.781406,-73.778175,212 STREET                      ,1,0
BROOKLYN,11217,40.683506,-73.97594000000001,ATLANTIC AVENUE                 ,0,0
BROOKLYN,11220,40.638313000000004,-74.00663,55 STREET                       ,0,0
BRONX,10467,40.879055,-73.87439,EAST GUN HILL ROAD              ,0,0
BROOKLYN,11211,40.71197,-73.96104,SOUTH 3 STREET                  ,0,0
BROOKLYN,11236,40.634365,-73.88883,SEAVIEW AVENUE                  ,0,0
MANHATTAN,10021,40.77369,-73.961945,PARK AVENUE                     ,0,0
MANHATTAN,10033,40.846138,-73.93424,WEST 177 STREET                 ,0,0
QUEENS,11421,40.685963,-73.85654,ATLANTIC AVENUE                 ,0,0
QUEENS,11364,40.736275,-73.772865,73 AVENUE                       ,0,0
BRONX,10454,40.805557,-73.91046999999999,BRUCKNER BOULEVARD              ,0,0
BRONX,10462,40.84633,-73.86081,MORRIS PARK AVENUE              ,0,0
MANHATTAN,10010,40.741405,-73.98337,EAST 26 STREET                  ,0,0
MANHATTAN,10037,40.815327,-73.93576,WEST 139 STREET                 ,0,0
BRONX,10469,40.858723,-73.83344,ASTOR AVENUE                    ,0,0
BRONX,10467,40.865359999999995,-73.87043,SOUTHERN BOULEVARD              ,0,0
BROOKLYN,11223,40.60753,-73.96481999999999,QUENTIN ROAD                    ,1,0
BRONX,10455,40.816044,-73.91195,SAINT ANNS AVENUE               ,0,0
BROOKLYN,11211,40.71135,-73.96143000000001,DRIGGS AVENUE                   ,0,0
QUEENS,11422,40.664745,-73.74003,BROOKVILLE BOULEVARD            ,0,0
BROOKLYN,11238,40.68815,-73.95987,CLIFTON PLACE                   ,0,0
MANHATTAN,10023,40.778797,-73.98206,BROADWAY                        ,0,0
BRONX,10467,40.880257,-73.876785,EAST GUN HILL ROAD              ,0,0
BROOKLYN,11224,40.575540000000004,-73.97964499999999,WEST 12 STREET                  ,0,0
BRONX,10466,40.8905,-73.831154,DARK STREET                     ,5,0
BRONX,10453,40.854763,-73.90765,WEST 180 STREET                 ,0,0
BRONX,10473,40.8223,-73.873,MORRISON AVENUE                 ,1,0
QUEENS,11693,40.588215000000005,-73.80515,ROCKAWAY BEACH BOULEVARD        ,0,0
MANHATTAN,10007,40.710888,-74.00907,BROADWAY                        ,1,0
QUEENS,11435,40.707375,-73.80969,148 STREET                      ,0,0
MANHATTAN,10025,40.80297,-73.96387,WEST 110 STREET                 ,0,0
BROOKLYN,11211,40.704209999999996,-73.96121,BEDFORD AVENUE                  ,0,0
QUEENS,11368,40.74484,-73.85225,111 STREET                      ,0,0
STATEN ISLAND,10314,40.620968,-74.12374,MANOR ROAD                      ,2,0
BROOKLYN,11220,40.636425,-74.00501,56 STREET                       ,0,0
BROOKLYN,11216,40.677574,-73.95548000000001,FRANKLIN AVENUE                 ,0,0
BRONX,10473,40.817173,-73.861725,SOUND VIEW AVENUE               ,0,0
BROOKLYN,11210,40.619083,-73.950264,BEDFORD AVENUE                  ,0,0
MANHATTAN,10021,40.773098,-73.96448000000001,MADISON AVENUE                  ,0,0
MANHATTAN,10002,40.720459999999996,-73.98963,ALLEN STREET                    ,1,0
BRONX,10456,40.82699,-73.90929399999999,EAST 165 STREET                 ,0,0
QUEENS,11103,40.758224,-73.91741,BROADWAY                        ,1,0
QUEENS,11416,40.68594,-73.84685999999999,WOODHAVEN BOULEVARD             ,0,0
QUEENS,11361,40.75826,-73.76829000000001,BELL BOULEVARD                  ,1,0
BROOKLYN,11214,40.60242,-73.99459,86 STREET                       ,0,0
QUEENS,11355,40.754509999999996,-73.827156,FRANKLIN AVENUE                 ,0,0
BROOKLYN,11228,40.625240000000005,-74.00947,71 STREET                       ,0,0
MANHATTAN,10035,40.802753,-73.93358,EAST 125 STREET                 ,0,0
STATEN ISLAND,10310,40.638237,-74.108696,HENDERSON AVENUE                ,0,0
BRONX,10453,40.850494,-73.91546,WEST TREMONT AVENUE             ,0,0
MANHATTAN,10031,40.828976000000004,-73.9486,WEST 149 STREET                 ,0,0
QUEENS,11378,40.731575,-73.92484,54 ROAD                         ,0,0
BRONX,10454,40.80422,-73.91135,EAST 138 STREET                 ,0,0
MANHATTAN,10011,40.742252,-74.00071,WEST 18 STREET                  ,0,0
BROOKLYN,11211,40.717033,-73.95644,DRIGGS AVENUE                   ,1,0
BROOKLYN,11230,40.617664000000005,-73.962814,EAST 12 STREET                  ,1,0
MANHATTAN,10028,40.776875,-73.94938,EAST 86 STREET                  ,0,0
BRONX,10474,40.807536999999996,-73.8798,HALLECK STREET                  ,0,0
QUEENS,11364,40.752434,-73.75949,56 AVENUE                       ,0,0
MANHATTAN,10003,40.73652,-73.99073,UNION SQUARE WEST               ,0,0
QUEENS,11419,40.685837,-73.82686,LIBERTY AVENUE                  ,0,0
BROOKLYN,11235,40.591263,-73.944016,AVENUE Y                        ,1,0
BROOKLYN,11208,40.675053000000005,-73.87436,PITKIN AVENUE                   ,0,0
BRONX,10462,40.845776,-73.86346400000001,MORRIS PARK AVENUE              ,1,0
BRONX,10457,40.854904,-73.89645,WEBSTER AVENUE                  ,0,0
QUEENS,11354,40.764706,-73.81100500000001,154 STREET                      ,0,0
BROOKLYN,11219,40.62681,-74.00784,OVINGTON AVENUE                 ,0,0
BROOKLYN,11210,40.619606,-73.945526,NOSTRAND AVENUE                 ,0,0
BROOKLYN,11229,40.60496,-73.94377,AVENUE S                        ,2,0
BRONX,10454,40.803593,-73.919785,BRUCKNER BOULEVARD              ,0,0
MANHATTAN,10035,40.808277000000004,-73.9388,MADISON AVENUE                  ,2,0
QUEENS,11369,40.76813,-73.87625,94 STREET                       ,0,0
QUEENS,11373,40.743396999999995,-73.88388,81 STREET                       ,0,0
QUEENS,11412,40.700703000000004,-73.752,203 STREET                      ,2,0
QUEENS,11374,40.73251,-73.86827,ELIOT AVENUE                    ,0,0
BRONX,10461,40.84551,-73.83422,WESTCHESTER AVENUE              ,0,0
BROOKLYN,11201,40.690144000000004,-73.98408,ELM PLACE                       ,0,0
MANHATTAN,10031,40.822643,-73.953224,WEST 139 STREET                 ,0,0
QUEENS,11433,40.701237,-73.79465,LIBERTY AVENUE                  ,1,0
MANHATTAN,10022,40.75781,-73.97353000000001,PARK AVENUE                     ,1,0
BRONX,10455,40.81516,-73.91774000000001,BERGEN AVENUE                   ,0,0
MANHATTAN,10027,40.815684999999995,-73.9583,BROADWAY                        ,0,0
MANHATTAN,10038,40.710396,-74.00561,WILLIAM STREET                  ,0,0
MANHATTAN,10019,40.761093,-73.98326999999999,WEST 50 STREET                  ,0,0
MANHATTAN,10128,40.782109999999996,-73.955795,PARK AVENUE                     ,0,0
MANHATTAN,10075,40.770393,-73.94808,EAST 79 STREET                  ,0,0
BROOKLYN,11220,40.638878000000005,-74.00605,8 AVENUE                        ,0,0
BRONX,10453,40.85132,-73.90841999999999,EAST TREMONT AVENUE             ,0,0
QUEENS,11101,40.742874,-73.933945,47 AVENUE                       ,0,0
MANHATTAN,10002,40.719337,-73.985916,SUFFOLK STREET                  ,0,0
QUEENS,11372,40.754387,-73.89653,NORTHERN BOULEVARD              ,2,0
MANHATTAN,10013,40.722324,-74.01178,WEST STREET                     ,1,0
BROOKLYN,11223,40.603004,-73.96155999999999,CONEY ISLAND AVENUE             ,0,0
QUEENS,11385,40.70985,-73.91714499999999,ONDERDONK AVENUE                ,0,0
BROOKLYN,11219,40.644059999999996,-73.99349000000001,40 STREET                       ,3,0
QUEENS,11365,40.727833000000004,-73.811134,PARSONS BOULEVARD               ,3,0
BROOKLYN,11218,40.63555,-73.97803,MC DONALD AVENUE                ,1,0
QUEENS,11101,40.748543,-73.94964,11 STREET                       ,0,0
BRONX,10473,40.824073999999996,-73.85979,STORY AVENUE                    ,0,0
QUEENS,11102,40.776695000000004,-73.927826,SHORE BOULEVARD                 ,1,0
BROOKLYN,11218,40.646378000000006,-73.97085,CHURCH AVENUE                   ,0,0
BRONX,10458,40.856243,-73.895584,EAST 183 STREET                 ,0,0
BROOKLYN,11210,40.636265,-73.94802,NOSTRAND AVENUE                 ,0,0
QUEENS,11385,40.709824,-73.89536,TRAFFIC AVENUE                  ,0,0
MANHATTAN,10029,40.792927,-73.94791,EAST 106 STREET                 ,0,0
MANHATTAN,10019,40.761093,-73.98326999999999,WEST 50 STREET                  ,0,0
MANHATTAN,10004,40.70495,-74.01156,BEAVER STREET                   ,0,0
QUEENS,11355,40.752316,-73.8324,COLLEGE POINT BOULEVARD         ,0,0
MANHATTAN,10003,40.730133,-73.98949,3 AVENUE                        ,0,0
BRONX,10453,40.85525,-73.91277,ANDREWS AVENUE                  ,0,0
BRONX,10466,40.897884000000005,-73.83969,MUNDY LANE                      ,0,0
QUEENS,11419,40.695858,-73.81891,130 STREET                      ,1,0
MANHATTAN,10039,40.825428,-73.93630999999999,7 AVENUE                        ,0,0
BRONX,10467,40.87144,-73.867165,BURKE AVENUE                    ,0,0
QUEENS,11411,40.69787,-73.743034,116 AVENUE                      ,0,0
MANHATTAN,10011,40.73104,-73.99961,MAC DOUGAL STREET               ,0,0
BROOKLYN,11231,40.679504,-74.00769,RICHARDS STREET                 ,0,0
BRONX,10473,40.824425,-73.84614,TURNBULL AVENUE                 ,0,0
BROOKLYN,11230,40.618109999999994,-73.959114,AVENUE M                        ,0,0
BROOKLYN,11219,40.639717,-73.99083,43 STREET                       ,0,0
QUEENS,11413,40.676792,-73.737946,231 STREET                      ,0,0
BRONX,10461,40.83917,-73.83629,EAST TREMONT AVENUE             ,1,0
QUEENS,11417,40.677876,-73.85064,87 STREET                       ,0,0
QUEENS,11422,40.665558000000004,-73.72985,SUNRISE HIGHWAY                 ,0,0
BRONX,10461,40.839085,-73.843925,SEABURY AVENUE                  ,0,0
MANHATTAN,10002,40.718555,-73.98820500000001,DELANCEY STREET                 ,0,0
MANHATTAN,10013,40.717278,-73.99544,BOWERY                          ,0,0
MANHATTAN,10013,40.721965999999995,-74.00824,HUDSON STREET                   ,0,0
QUEENS,11421,40.68957,-73.85706,86 STREET                       ,0,0
BRONX,10454,40.808006,-73.91434,BEEKMAN AVENUE                  ,0,0
QUEENS,11355,40.746204,-73.835075,COLLEGE POINT BOULEVARD         ,0,0
BROOKLYN,11210,40.622826,-73.938416,AVENUE L                        ,0,0
MANHATTAN,10012,40.72639,-73.9918,BOWERY                          ,1,0
STATEN ISLAND,10304,40.58865,-74.11126,TODT HILL ROAD                  ,2,0
BROOKLYN,11211,40.713634000000006,-73.94595,DEVOE STREET                    ,0,0
QUEENS,11372,40.750626000000004,-73.87595,37 AVENUE                       ,0,0
QUEENS,11426,40.741207,-73.71864000000001,251 STREET                      ,0,0
BROOKLYN,11231,40.68293,-74.005684,HAMILTON AVENUE                 ,0,0
BROOKLYN,11214,40.599247,-74.00146,CROPSEY AVENUE                  ,0,0
QUEENS,11435,40.70213,-73.80445,150 STREET                      ,0,0
QUEENS,11422,40.665558000000004,-73.72985,HOOK CREEK BOULEVARD            ,0,0
MANHATTAN,10033,40.849308,-73.93191999999999,WEST 182 STREET                 ,0,0
BROOKLYN,11233,40.676190000000005,-73.9081,EASTERN PARKWAY                 ,0,0
QUEENS,11377,40.737144,-73.9171,49 STREET                       ,0,0
BROOKLYN,11207,40.679337,-73.89483,ARLINGTON AVENUE                ,0,0
BROOKLYN,11226,40.65487,-73.96191,PARKSIDE AVENUE                 ,1,0
MANHATTAN,10019,40.760456,-73.98374,WEST 49 STREET                  ,0,0
QUEENS,11385,40.705376,-73.86861400000001,80 STREET                       ,0,0
MANHATTAN,10025,40.795532,-73.97584499999999,WEST 95 STREET                  ,0,0
QUEENS,11356,40.78407,-73.849434,118 STREET                      ,0,0
STATEN ISLAND,10305,40.58339,-74.08979000000001,BUEL AVENUE                     ,0,0
MANHATTAN,10007,40.717186,-74.0129,WEST STREET                     ,0,0
BROOKLYN,11226,40.650856,-73.9486,CHURCH AVENUE                   ,0,0
MANHATTAN,10021,40.770424,-73.96222,EAST 72 STREET                  ,0,0
BROOKLYN,11203,40.652462,-73.92285,CHURCH AVENUE                   ,0,0
BRONX,10465,40.820479999999996,-73.81809,EAST TREMONT AVENUE             ,0,0
MANHATTAN,10028,40.776959999999995,-73.959564,EAST 81 STREET                  ,1,0
QUEENS,11355,40.745304,-73.82595,MAIN STREET                     ,0,0
BRONX,10467,40.8678,-73.86251,ARNOW AVENUE                    ,0,0
MANHATTAN,10030,40.823646999999994,-73.943855,EDGECOMBE AVENUE                ,0,0
BROOKLYN,11210,40.628646999999994,-73.95206999999999,BEDFORD AVENUE                  ,0,0
BRONX,10469,40.883152,-73.856285,EAST 221 STREET                 ,0,0
BRONX,10452,40.830563,-73.92727,MACOMBS DAM BRIDGE              ,0,0
MANHATTAN,10018,40.75529,-73.99493000000001,9 AVENUE                        ,0,0
QUEENS,11418,40.69662,-73.8162,ATLANTIC AVENUE                 ,0,0
QUEENS,11385,40.70913,-73.90436,GROVE STREET                    ,0,0
QUEENS,11692,40.592785,-73.797165,BEACH CHANNEL DRIVE             ,0,0
MANHATTAN,10012,40.721171999999996,-73.99658000000001,MULBERRY STREET                 ,0,0
BRONX,10465,40.828125,-73.84105,BRUCKNER BOULEVARD              ,2,0
BROOKLYN,11230,40.628116999999996,-73.956856,OCEAN AVENUE                    ,0,0
MANHATTAN,10023,40.772865,-73.98955,WEST 61 STREET                  ,0,0
BROOKLYN,11212,40.66255,-73.90893,LIVONIA AVENUE                  ,1,0
BRONX,10456,40.831127,-73.91745,EAST 166 STREET                 ,0,0
BROOKLYN,11217,40.685955,-73.98028000000001,3 AVENUE                        ,0,0
BROOKLYN,11237,40.704716,-73.92875,KNICKERBOCKER AVENUE            ,1,0
BRONX,10466,40.88919,-73.83131,EAST 233 STREET                 ,0,0
BROOKLYN,11213,40.670277,-73.92541999999999,SAINT JOHNS PLACE               ,0,0
BROOKLYN,11226,40.64485,-73.96002,OCEAN AVENUE                    ,3,0
QUEENS,11385,40.695496,-73.89588,79 AVENUE                       ,0,0
MANHATTAN,10011,40.736668,-73.997345,AVENUE OF THE AMERICAS          ,0,0
BROOKLYN,11226,40.655871999999995,-73.9564,BEDFORD AVENUE                  ,0,0
BRONX,10472,40.826423999999996,-73.85868,BRUCKNER BOULEVARD              ,0,0
MANHATTAN,10028,40.775929999999995,-73.94713,YORK AVENUE                     ,1,0
BRONX,10463,40.88038,-73.91091,RIVERDALE AVENUE                ,0,0
BRONX,10467,40.865359999999995,-73.87043,BRONX PARK EAST                 ,1,0
QUEENS,11101,40.746143,-73.94174,THOMSON AVENUE                  ,0,0
BROOKLYN,11215,40.666077,-73.995224,3 AVENUE                        ,0,0
BRONX,10453,40.85396,-73.90944,WEST BURNSIDE AVENUE            ,0,0
MANHATTAN,10010,40.741028,-73.99417,WEST 20 STREET                  ,0,0
BRONX,10468,40.867474,-73.89741,EAST KINGSBRIDGE ROAD           ,0,0
QUEENS,11435,40.688564,-73.79781,LIVERPOOL STREET                ,0,0
QUEENS,11377,40.73401,-73.90603,52 ROAD                         ,0,0
BROOKLYN,11233,40.676445,-73.92761999999999,ROCHESTER AVENUE                ,0,0
QUEENS,11361,40.761435999999996,-73.76995,BELL BOULEVARD                  ,0,0
BROOKLYN,11220,40.632884999999995,-74.019745,BAY RIDGE AVENUE                ,0,0
QUEENS,11105,40.780457,-73.91684000000001,21 STREET                       ,1,0
QUEENS,11434,40.69103,-73.78079,LINDEN BOULEVARD                ,0,0
BROOKLYN,11216,40.68327,-73.95016,NOSTRAND AVENUE                 ,0,0
QUEENS,11374,40.73191,-73.87124,WOODHAVEN BOULEVARD             ,1,0
BRONX,10454,40.812263,-73.92059,EAST 143 STREET                 ,0,0
BROOKLYN,11204,40.625996,-73.99076,16 AVENUE                       ,0,0
QUEENS,11426,40.73084,-73.71204,254 STREET                      ,0,0
BROOKLYN,11203,40.649159999999995,-73.94552,EAST 34 STREET                  ,0,0
BROOKLYN,11218,40.64711,-73.972534,EAST 8 STREET                   ,0,0
BRONX,10452,40.838715,-73.91998000000001,WEST CLARKE PLACE               ,0,0
BRONX,10457,40.847614,-73.887794,EAST 180 STREET                 ,0,0
QUEENS,11365,40.730053000000005,-73.79353,UTOPIA PARKWAY                  ,0,0
QUEENS,11435,40.714283,-73.8102,150 STREET                      ,1,0
QUEENS,11420,40.67302,-73.824,115 STREET                      ,0,0
BRONX,10463,40.885659999999994,-73.90999000000001,WEST 235 STREET                 ,0,0
MANHATTAN,10001,40.75458,-73.99915,WEST 34 STREET                  ,1,0
BROOKLYN,11216,40.680640000000004,-73.95338000000001,BEDFORD AVENUE                  ,0,0
QUEENS,11435,40.704403000000006,-73.81444499999999,139 STREET                      ,0,0
QUEENS,11385,40.7056,-73.85821999999999,WOODHAVEN BOULEVARD             ,0,0
QUEENS,11421,40.68775,-73.857414,85 STREET                       ,0,0
BROOKLYN,11204,40.61483,-73.99838000000001,BAY RIDGE PARKWAY               ,0,0
QUEENS,11412,40.69572,-73.75376999999999,199 STREET                      ,0,0
BROOKLYN,11206,40.706852000000005,-73.948204,MONTROSE AVENUE                 ,1,0
BROOKLYN,11230,40.61688,-73.954735,OCEAN AVENUE                    ,0,0
STATEN ISLAND,10309,40.528225,-74.23938000000001,ARTHUR KILL ROAD                ,1,0
QUEENS,11412,40.704277000000005,-73.74986,112 AVENUE                      ,0,0
BRONX,10467,40.878009999999996,-73.88053000000001,ROCHAMBEAU AVENUE               ,0,0
MANHATTAN,10019,40.76979,-73.988075,10 AVENUE                       ,0,0
BRONX,10473,40.82062,-73.86858000000001,LAFAYETTE AVENUE                ,0,0
BROOKLYN,11221,40.688114,-73.92104,MADISON STREET                  ,1,0
BROOKLYN,11216,40.676094,-73.94991999999999,BERGEN STREET                   ,1,0
BRONX,10460,40.83862,-73.88114,WEST FARMS ROAD                 ,0,0
MANHATTAN,10022,40.757698,-73.9694,3 AVENUE                        ,0,0
MANHATTAN,10021,40.771782,-73.96544,MADISON AVENUE                  ,0,0
BROOKLYN,11224,40.575565000000005,-73.98121,STILLWELL AVENUE                ,2,0
QUEENS,11422,40.66561,-73.73568,SUNRISE HIGHWAY                 ,1,0
STATEN ISLAND,10305,40.591159999999995,-74.09076,ATLANTIC AVENUE                 ,0,0
MANHATTAN,10002,40.721920000000004,-73.99004000000001,ELDRIDGE STREET                 ,0,0
BROOKLYN,11236,40.629208,-73.90126,AVENUE N                        ,0,0
STATEN ISLAND,10310,40.63367,-74.12945,CASTLETON AVENUE                ,0,0
QUEENS,11413,40.657973999999996,-73.75202,147 AVENUE                      ,2,0
BROOKLYN,11207,40.674397,-73.89651500000001,PENNSYLVANIA AVENUE             ,0,0
QUEENS,11429,40.714027,-73.735725,102 AVENUE                      ,0,0
BROOKLYN,11203,40.653620000000004,-73.933525,LINDEN BOULEVARD                ,1,0
MANHATTAN,10019,40.766876,-73.97908000000001,CENTRAL PARK SOUTH              ,0,0
QUEENS,11385,40.700516,-73.89838,MYRTLE AVENUE                   ,0,0
MANHATTAN,10032,40.83593,-73.94351999999999,WEST 160 STREET                 ,0,0
BRONX,10464,40.851044,-73.78741,MINNIEFORD AVENUE               ,1,0
MANHATTAN,10065,40.769268,-73.96937,5 AVENUE                        ,0,0
BROOKLYN,11235,40.589664,-73.9586,AVENUE Y                        ,0,0
STATEN ISLAND,10301,40.61242,-74.09936,CLOVE ROAD                      ,0,0
BROOKLYN,11226,40.647242999999996,-73.96048,OCEAN AVENUE                    ,1,0
BRONX,10469,40.875492,-73.86052,EAST GUN HILL ROAD              ,0,0
BROOKLYN,11213,40.6772,-73.94147,PACIFIC STREET                  ,0,0
BROOKLYN,11206,40.700424,-73.9444,FLUSHING AVENUE                 ,2,0
QUEENS,11354,40.772696999999994,-73.83396,LINDEN PLACE                    ,0,0
QUEENS,11436,40.676598,-73.79594399999999,144 STREET                      ,0,0
QUEENS,11414,40.66252,-73.84071,CROSS BAY BOULEVARD             ,0,0
QUEENS,11423,40.713879999999996,-73.75404,JAMAICA AVENUE                  ,0,0
BROOKLYN,11221,40.696659999999994,-73.93109,BUSHWICK AVENUE                 ,0,0
MANHATTAN,10007,40.716534,-74.00668,CHURCH STREET                   ,0,0
QUEENS,11434,40.66564,-73.77896,ROCKAWAY BOULEVARD              ,0,0
BROOKLYN,11213,40.669403,-73.94221,EASTERN PARKWAY                 ,0,0
QUEENS,11101,40.74706,-73.929344,35 STREET                       ,0,0
BRONX,10451,40.81505,-73.92426999999999,MORRIS AVENUE                   ,0,0
BRONX,10469,40.877033000000004,-73.846375,BOSTON ROAD                     ,0,0
QUEENS,11420,40.666893,-73.80546,NORTH CONDUIT AVENUE            ,3,0
QUEENS,11368,40.73704,-73.85939,99 STREET                       ,1,0
BROOKLYN,11249,40.70166,-73.961464,WILLIAMSBURG STREET WEST        ,0,0
MANHATTAN,10019,40.764736,-73.98804,9 AVENUE                        ,0,0
MANHATTAN,10031,40.826427,-73.950455,WEST 145 STREET                 ,0,0
QUEENS,11428,40.723892,-73.74327,217 STREET                      ,0,0
QUEENS,11413,40.66645,-73.75764000000001,NORTH CONDUIT AVENUE            ,2,0
QUEENS,11416,40.682087,-73.85367,86 STREET                       ,0,0
QUEENS,11373,40.733536,-73.87035,QUEENS BOULEVARD                ,1,0
QUEENS,11379,40.712204,-73.88638,METROPOLITAN AVENUE             ,1,0
QUEENS,11101,40.740913,-73.95226,BORDEN AVENUE                   ,0,0
MANHATTAN,10005,40.707695,-74.01021,NASSAU STREET                   ,0,0
QUEENS,11357,40.78309,-73.818794,147 STREET                      ,1,0
MANHATTAN,10128,40.782314,-73.94851,EAST 93 STREET                  ,0,0
STATEN ISLAND,10310,40.626328,-74.13132,FOREST AVENUE                   ,0,0
MANHATTAN,10002,40.716965,-73.99443000000001,HESTER STREET                   ,0,0
BROOKLYN,11230,40.62713,-73.97528,ELMWOOD AVENUE                  ,0,0
BROOKLYN,11222,40.726240000000004,-73.93795,APOLLO STREET                   ,0,0
MANHATTAN,10018,40.758976000000004,-73.99394000000001,WEST 42 STREET                  ,0,0
MANHATTAN,10012,40.725796,-73.99762,WEST HOUSTON STREET             ,1,0
BROOKLYN,11207,40.65753,-73.89797,LINDEN BOULEVARD                ,0,0
BRONX,10463,40.88548,-73.90904,WEST 235 STREET                 ,0,0
BROOKLYN,11207,40.67816,-73.89748399999999,PENNSYLVANIA AVENUE             ,0,0
QUEENS,11691,40.604046000000004,-73.756996,GRASSMERE TERRACE               ,3,0
BROOKLYN,11230,40.624179999999996,-73.97048000000001,OCEAN PARKWAY                   ,0,0
QUEENS,11373,40.738197,-73.88492,QUEENS BOULEVARD                ,0,0
QUEENS,11434,40.679935,-73.776375,BAISLEY BOULEVARD               ,1,0
BROOKLYN,11221,40.6889,-73.92726,PATCHEN AVENUE                  ,0,0
QUEENS,11101,40.74044,-73.949936,BORDEN AVENUE                   ,0,0
MANHATTAN,10027,40.80777,-73.94549,LENOX AVENUE                    ,0,0
MANHATTAN,10011,40.74756,-74.00786,11 AVENUE                       ,1,0
BROOKLYN,11234,40.62571,-73.92956,EAST 48 STREET                  ,0,0
QUEENS,11354,40.765353999999995,-73.81733,149 STREET                      ,2,0
BRONX,10451,40.82111,-73.92749,WALTON AVENUE                   ,0,0
BROOKLYN,11213,40.668648,-73.92835,ROCHESTER AVENUE                ,0,0
QUEENS,11427,40.728584000000005,-73.7446,89 AVENUE                       ,0,0
BRONX,10467,40.879864000000005,-73.87595999999999,EAST GUN HILL ROAD              ,0,0
BROOKLYN,11204,40.627975,-73.97753,47 STREET                       ,0,0
BROOKLYN,11234,40.62637,-73.914505,AVENUE L                        ,0,0
QUEENS,11420,40.666855,-73.80425,135 STREET                      ,0,0
MANHATTAN,10031,40.81792,-73.949745,SAINT NICHOLAS TERRACE          ,0,0
BROOKLYN,11204,40.62167,-73.991264,17 AVENUE                       ,1,0
QUEENS,11423,40.71125,-73.77709,90 AVENUE                       ,1,0
BROOKLYN,11216,40.669703999999996,-73.94774,EASTERN PARKWAY                 ,0,0
BROOKLYN,11223,40.58794,-73.97429,SHELL ROAD                      ,0,0
BROOKLYN,11223,40.608814,-73.973,AVENUE P                        ,0,0
BROOKLYN,11201,40.689144,-73.99070999999999,ATLANTIC AVENUE                 ,0,0
BROOKLYN,11223,40.607628000000005,-73.9639,QUENTIN ROAD                    ,2,0
BRONX,10453,40.8518,-73.909225,EAST TREMONT AVENUE             ,1,0
BROOKLYN,11214,40.593884,-73.9902,BAY 40 STREET                   ,0,0
QUEENS,11412,40.70089,-73.75708,198 STREET                      ,0,0
QUEENS,11101,40.740913,-73.95226,BORDEN AVENUE                   ,1,0
BRONX,10472,40.82866,-73.87824,BOYNTON AVENUE                  ,0,0
MANHATTAN,10013,40.71745,-74.00354,BROADWAY                        ,0,0
MANHATTAN,10001,40.75578,-74.00199,WEST 34 STREET                  ,0,0
BROOKLYN,11234,40.632095,-73.91861,RALPH AVENUE                    ,0,0
QUEENS,11364,40.736275,-73.772865,FRANCIS LEWIS BOULEVARD         ,0,0
QUEENS,11412,40.690917999999996,-73.7623,BAISLEY BOULEVARD               ,0,0
MANHATTAN,10003,40.73401,-73.98478,EAST 16 STREET                  ,0,0
MANHATTAN,10027,40.810173,-73.95116999999999,WEST 125 STREET                 ,0,0
BROOKLYN,11233,40.68316,-73.93809,MARCUS GARVEY BOULEVARD         ,1,0
BRONX,10471,40.906859999999995,-73.904106,RIVERDALE AVENUE                ,0,0
MANHATTAN,10014,40.732372,-74.00348000000001,7 AVENUE SOUTH                  ,0,0
BROOKLYN,11213,40.66895,-73.9339,EASTERN PARKWAY                 ,0,0
MANHATTAN,10027,40.81245,-73.96065,WEST 123 STREET                 ,0,0
BROOKLYN,11233,40.672497,-73.91686,PROSPECT PLACE                  ,0,0
BROOKLYN,11233,40.679146,-73.92657,FULTON STREET                   ,0,0
MANHATTAN,10035,40.805637,-73.9344,EAST 128 STREET                 ,0,0
BROOKLYN,11226,40.643246000000005,-73.94877,NOSTRAND AVENUE                 ,0,0
BROOKLYN,11230,40.61642,-73.97445,AVENUE M                        ,0,0
BROOKLYN,11226,40.650715000000005,-73.951385,CHURCH AVENUE                   ,0,0
QUEENS,11104,40.749140000000004,-73.91561,48 STREET                       ,1,0
QUEENS,11104,40.743373999999996,-73.92056,QUEENS BOULEVARD                ,0,0
QUEENS,11377,40.740772,-73.89867,66 STREET                       ,1,0
BROOKLYN,11234,40.625786,-73.92832,AVENUE K                        ,0,0
QUEENS,11691,40.59514,-73.754,SEAGIRT BOULEVARD               ,0,0
MANHATTAN,10014,40.731064,-74.00801,MORTON STREET                   ,0,0
MANHATTAN,10001,40.74658,-73.99756,WEST 25 STREET                  ,0,0
QUEENS,11368,40.74403,-73.85869,CORONA AVENUE                   ,1,0
BROOKLYN,11230,40.634679999999996,-73.96509,ARGYLE ROAD                     ,1,0
BRONX,10469,40.873222,-73.83747,ELY AVENUE                      ,1,0
MANHATTAN,10018,40.754093,-73.99209,WEST 37 STREET                  ,0,0
BRONX,10465,40.826797,-73.82236999999999,EAST TREMONT AVENUE             ,0,0
BROOKLYN,11201,40.688904,-73.98093399999999,FLATBUSH AVENUE EXTENSION       ,0,0
QUEENS,11417,40.67472,-73.85839,SUTTER AVENUE                   ,0,0
BRONX,10461,40.85615,-73.84395,EASTCHESTER ROAD                ,0,0
MANHATTAN,10075,40.770073,-73.95141,YORK AVENUE                     ,0,0
QUEENS,11433,40.69815,-73.79241,BREWER BOULEVARD                ,0,0
BROOKLYN,11234,40.634483,-73.91886,RALPH AVENUE                    ,0,0
BROOKLYN,11215,40.666959999999996,-73.97822,8 AVENUE                        ,0,0
QUEENS,11427,40.732864,-73.73219,235 COURT                       ,0,0
QUEENS,11423,40.710346,-73.76904,WOODHULL AVENUE                 ,0,0
MANHATTAN,10026,40.804417,-73.955376,WEST 116 STREET                 ,0,0
MANHATTAN,10010,40.741615,-73.99374399999999,AVENUE OF THE AMERICAS          ,0,0
STATEN ISLAND,10304,40.624367,-74.08033,BROAD STREET                    ,0,0
MANHATTAN,10002,40.71741,-73.984,RIDGE STREET                    ,0,0
BROOKLYN,11238,40.676548,-73.96354000000001,PROSPECT PLACE                  ,0,0
BROOKLYN,11226,40.643303,-73.9478,CLARENDON ROAD                  ,0,0
BRONX,10470,40.90348,-73.85035,EAST 241 STREET                 ,1,0
BROOKLYN,11204,40.619156,-73.99388,67 STREET                       ,0,0
BROOKLYN,11235,40.58478,-73.96255500000001,SHORE PARKWAY                   ,0,0
QUEENS,11434,40.683777,-73.76975,MERRICK BOULEVARD               ,0,0
QUEENS,11368,40.756683,-73.85793000000001,111 STREET                      ,0,0
MANHATTAN,10016,40.747295,-73.97405,EAST 38 STREET                  ,0,0
BRONX,10458,40.854973,-73.89251,BASSFORD AVENUE                 ,0,0
BROOKLYN,11209,40.6228,-74.02835999999999,4 AVENUE                        ,0,0
QUEENS,11417,40.672146000000005,-73.84318,CROSS BAY BOULEVARD             ,0,0
MANHATTAN,10014,40.735844,-74.00596999999999,WEST 11 STREET                  ,0,0
QUEENS,11379,40.7231,-73.87768,62 AVENUE                       ,0,0
MANHATTAN,10010,40.741615,-73.99374399999999,AVENUE OF THE AMERICAS          ,0,0
QUEENS,11416,40.685665,-73.85254,95 AVENUE                       ,0,0
MANHATTAN,10019,40.76432,-73.9772,WEST 57 STREET                  ,0,0
STATEN ISLAND,10309,40.54367,-74.20881,MCBAINE AVENUE                  ,0,0
BROOKLYN,11210,40.636086,-73.95091,FARRAGUT ROAD                   ,0,0
QUEENS,11358,40.766040000000004,-73.789986,192 STREET                      ,0,0
QUEENS,11434,40.66564,-73.77896,158 STREET                      ,0,0
QUEENS,11365,40.737829999999995,-73.79643,HORACE HARDING EXPRESSWAY       ,0,0
BRONX,10473,40.819378,-73.86154,THIERIOT AVENUE                 ,0,0
MANHATTAN,10031,40.828346,-73.94906,WEST 148 STREET                 ,0,0
STATEN ISLAND,10308,40.555824,-74.16103000000001,ARMSTRONG AVENUE                ,1,0
BROOKLYN,11230,40.632915000000004,-73.9689,NEWKIRK AVENUE                  ,1,0
MANHATTAN,10002,40.713207000000004,-73.97739,GRAND STREET                    ,0,0
BROOKLYN,11234,40.621357,-73.92714000000001,UTICA AVENUE                    ,0,0
QUEENS,11412,40.690917999999996,-73.7623,FARMERS BOULEVARD               ,0,0
BRONX,10460,40.840343,-73.86725600000001,EAST TREMONT AVENUE             ,0,0
MANHATTAN,10012,40.722297999999995,-73.99713,LAFAYETTE STREET                ,0,0
QUEENS,11432,40.712284000000004,-73.78536,HILLSIDE AVENUE                 ,0,0
QUEENS,11377,40.760975,-73.89773000000001,BOODY STREET                    ,0,0
MANHATTAN,10033,40.847427,-73.931404,AMSTERDAM AVENUE                ,0,0
STATEN ISLAND,10304,40.619774,-74.0777,VANDERBILT AVENUE               ,0,0
STATEN ISLAND,10301,40.61505,-74.10707,VICTORY BOULEVARD               ,0,0
BRONX,10472,40.8283,-73.88296,WESTCHESTER AVENUE              ,0,0
BROOKLYN,11204,40.616127,-73.98986,19 AVENUE                       ,0,0
BROOKLYN,11236,40.644863,-73.91113,REMSEN AVENUE                   ,0,0
QUEENS,11435,40.71347,-73.81016,84 AVENUE                       ,0,0
BROOKLYN,11218,40.637405,-73.982475,15 AVENUE                       ,0,0
MANHATTAN,10034,40.865547,-73.92728000000001,BROADWAY                        ,0,0
BROOKLYN,11219,40.633904,-73.99329,13 AVENUE                       ,0,0
QUEENS,11354,40.762978000000004,-73.83198,MAIN STREET                     ,0,0
QUEENS,11422,40.66652,-73.73645,FRANCIS LEWIS BOULEVARD         ,0,0
BROOKLYN,11234,40.614917999999996,-73.91468,AVENUE U                        ,0,0
BRONX,10468,40.862716999999996,-73.9023,WEST FORDHAM ROAD               ,0,0
MANHATTAN,10029,40.792927,-73.94791,EAST 106 STREET                 ,0,0
MANHATTAN,10016,40.742022999999996,-73.98292,EAST 27 STREET                  ,1,0
BRONX,10469,40.88302,-73.85325,PAULDING AVENUE                 ,0,0
QUEENS,11370,40.76141,-73.88454399999999,84 STREET                       ,4,0
BROOKLYN,11226,40.650806,-73.94958000000001,CHURCH AVENUE                   ,0,0
STATEN ISLAND,10301,40.634533000000005,-74.0867,CEBRA AVENUE                    ,0,0
MANHATTAN,10035,40.804676,-73.93223,EAST 128 STREET                 ,0,0
BROOKLYN,11231,40.67641,-74.00104,HAMILTON AVENUE                 ,0,0
STATEN ISLAND,10301,40.602135,-74.114876,OCEAN TERRACE                   ,1,0
BROOKLYN,11203,40.651104,-73.94381,CHURCH AVENUE                   ,1,0
BRONX,10458,40.866046999999995,-73.88274399999999,SOUTHERN BOULEVARD              ,2,0
BRONX,10465,40.828125,-73.84105,BRUCKNER BOULEVARD              ,3,0
BROOKLYN,11226,40.654457,-73.960785,EAST 21 STREET                  ,0,0
BRONX,10462,40.836132,-73.85014,DORIS STREET                    ,1,0
QUEENS,11432,40.708076,-73.78238,JAMAICA AVENUE                  ,0,0
MANHATTAN,10017,40.753479999999996,-73.980896,WEST 42 STREET                  ,0,0
STATEN ISLAND,10301,40.64553,-74.07766,RICHMOND TERRACE                ,0,0
BROOKLYN,11207,40.653420000000004,-73.88898,COZINE AVENUE                   ,0,0
MANHATTAN,10001,40.750294,-73.99485,8 AVENUE                        ,0,0
BRONX,10453,40.861862,-73.91282,WEST FORDHAM ROAD               ,0,0
BROOKLYN,11230,40.61462,-73.968666,OCEAN PARKWAY                   ,1,0
BROOKLYN,11231,40.67474,-73.99776999999999,SMITH STREET                    ,0,0
QUEENS,11375,40.735664,-73.8457,GRAND CENTRAL PARKWAY           ,0,0
QUEENS,11101,40.745067999999996,-73.93826,SKILLMAN AVENUE                 ,0,0
BROOKLYN,11233,40.677364000000004,-73.90798000000001,EASTERN PARKWAY                 ,0,0
BRONX,10475,40.885952,-73.8279,CONNER STREET                   ,0,0
MANHATTAN,10019,40.769220000000004,-73.98478,9 AVENUE                        ,0,0
STATEN ISLAND,10305,40.607098,-74.061,SCHOOL ROAD                     ,0,0
MANHATTAN,10004,40.705147,-74.00999,SOUTH WILLIAM STREET            ,0,0
QUEENS,11413,40.665420000000005,-73.745995,SOUTH CONDUIT AVENUE            ,1,0
QUEENS,11373,40.731182000000004,-73.871605,WOODHAVEN BOULEVARD             ,1,0
BROOKLYN,11204,40.613552,-73.98176,BAY PARKWAY                     ,0,0
BROOKLYN,11213,40.67888,-73.93561,TROY AVENUE                     ,0,0
MANHATTAN,10016,40.74954,-73.97744,LEXINGTON AVENUE                ,1,0
BRONX,10467,40.861336,-73.86680600000001,BOSTON ROAD                     ,0,0
BROOKLYN,11215,40.665813,-73.97584,PROSPECT PARK WEST              ,0,0
BROOKLYN,11203,40.649159999999995,-73.94552,EAST 34 STREET                  ,0,0
MANHATTAN,10019,40.763657,-73.97346999999999,WEST 58 STREET                  ,0,0
QUEENS,11365,40.737896,-73.79131,64 AVENUE                       ,1,0
QUEENS,11417,40.67477,-73.86030600000001,NORTH CONDUIT AVENUE            ,0,0
BRONX,10467,40.883133,-73.88209499999999,WEST GUN HILL ROAD              ,0,0
MANHATTAN,10012,40.724136,-73.992615,BOWERY                          ,0,0
BRONX,10460,40.838390000000004,-73.88606,BOSTON ROAD                     ,0,0
BRONX,10458,40.86226,-73.89589000000001,EAST FORDHAM ROAD               ,0,0
BRONX,10461,40.849959999999996,-73.84774,TENBROECK AVENUE                ,1,0
MANHATTAN,10017,40.752377,-73.97035,2 AVENUE                        ,5,0
MANHATTAN,10002,40.719025,-73.98978000000001,DELANCEY STREET                 ,0,0
BROOKLYN,11236,40.63787,-73.90963,FLATLANDS AVENUE                ,0,0
MANHATTAN,10038,40.710175,-74.001144,ROBERT F WAGNER PLACE           ,0,0
QUEENS,11385,40.703377,-73.86343000000001,MYRTLE AVENUE                   ,1,0
QUEENS,11420,40.66708,-73.81033000000001,NORTH CONDUIT AVENUE            ,0,0
BRONX,10473,40.81005,-73.8502,BETTS AVENUE                    ,0,0
QUEENS,11416,40.682564,-73.85199,101 AVENUE                      ,1,0
QUEENS,11435,40.705124,-73.81191,HILLSIDE AVENUE                 ,0,0
BROOKLYN,11203,40.646440000000005,-73.927864,BEVERLEY ROAD                   ,0,0
QUEENS,11377,40.750415999999994,-73.897736,35 AVENUE                       ,3,0
QUEENS,11413,40.66645,-73.75764000000001,NORTH CONDUIT AVENUE            ,0,0
MANHATTAN,10025,40.799915000000006,-73.96238000000001,COLUMBUS AVENUE                 ,2,0
BRONX,10454,40.809265,-73.90854,EAST 144 STREET                 ,0,0
BROOKLYN,11214,40.603035,-74.00111,BAY 23 STREET                   ,0,0
QUEENS,11385,40.700516,-73.89838,60 STREET                       ,0,0
STATEN ISLAND,10305,40.586104999999996,-74.09109000000001,SEAVIEW AVENUE                  ,0,0
BRONX,10469,40.879635,-73.85823,BRONXWOOD AVENUE                ,1,0
BRONX,10465,40.828125,-73.84105,BRUCKNER BOULEVARD              ,0,0
BRONX,10452,40.832283000000004,-73.92975,OGDEN AVENUE                    ,0,0
QUEENS,11435,40.70377,-73.80521999999999,150 STREET                      ,0,0
MANHATTAN,10002,40.72293,-73.98865,EAST HOUSTON STREET             ,0,0
MANHATTAN,10016,40.743324,-73.984085,PARK AVENUE SOUTH               ,1,0
QUEENS,11432,40.713642,-73.80694,PARSONS BOULEVARD               ,0,0
STATEN ISLAND,10309,40.519936,-74.21101999999999,SOUTH GOFF AVENUE               ,0,0
QUEENS,11385,40.70049,-73.90134,MYRTLE AVENUE                   ,0,0
BROOKLYN,11216,40.68039,-73.94955999999999,NOSTRAND AVENUE                 ,0,0
BROOKLYN,11230,40.61874,-73.957275,EAST 18 STREET                  ,0,0
BROOKLYN,11232,40.64727,-73.99731,39 STREET                       ,0,0
QUEENS,11691,40.609535,-73.75372,BEACH CHANNEL DRIVE             ,1,0
MANHATTAN,10018,40.75537,-73.98746,WEST 41 STREET                  ,0,0
BROOKLYN,11217,40.678978,-73.98501,3 AVENUE                        ,0,0
BROOKLYN,11236,40.633434,-73.90341,AVENUE L                        ,0,0
MANHATTAN,10065,40.761856,-73.96343,2 AVENUE                        ,0,0
QUEENS,11417,40.681670000000004,-73.83781,LIBERTY AVENUE                  ,0,0
QUEENS,11385,40.712696,-73.900604,FRESH POND ROAD                 ,0,0
QUEENS,11413,40.664597,-73.76331,182 STREET                      ,0,0
BRONX,10459,40.820007000000004,-73.89493,TIFFANY STREET                  ,0,0
BROOKLYN,11207,40.66239,-73.88594,HEGEMAN AVENUE                  ,2,0
QUEENS,11368,40.754954999999995,-73.85384,114 STREET                      ,0,0
BRONX,10455,40.816555,-73.91677,WESTCHESTER AVENUE              ,1,0
MANHATTAN,10022,40.762287,-73.972374,EAST 57 STREET                  ,0,0
BROOKLYN,11226,40.649082,-73.96399,EAST 17 STREET                  ,0,0
QUEENS,11432,40.711822999999995,-73.78786,HILLSIDE AVENUE                 ,1,0
QUEENS,11434,40.66796,-73.77155,NORTH CONDUIT AVENUE            ,0,0
BROOKLYN,11238,40.6828,-73.960724,PUTNAM AVENUE                   ,0,0
BRONX,10469,40.871254,-73.84355,HAMMERSLEY AVENUE               ,0,0
BRONX,10463,40.885659999999994,-73.90999000000001,WEST 235 STREET                 ,1,0
BROOKLYN,11238,40.672847999999995,-73.9675,EASTERN PARKWAY                 ,0,0
QUEENS,11691,40.607872,-73.7487,WHEATLEY STREET                 ,0,0
BRONX,10458,40.856809999999996,-73.89818000000001,VALENTINE AVENUE                ,0,0
BROOKLYN,11230,40.624179999999996,-73.97048000000001,OCEAN PARKWAY                   ,0,0
QUEENS,11375,40.722970000000004,-73.84448,70 AVENUE                       ,0,0
QUEENS,11385,40.705063,-73.89126999999999,CATALPA AVENUE                  ,0,0
STATEN ISLAND,10304,40.607690000000005,-74.08945,TARGEE STREET                   ,0,0
BROOKLYN,11221,40.687355,-73.9183,BROADWAY                        ,2,0
BRONX,10462,40.85239,-73.86676999999999,BRADY AVENUE                    ,0,0
BRONX,10456,40.826874,-73.90539,BOSTON ROAD                     ,0,0
QUEENS,11101,40.752228,-73.93911,CRESCENT STREET                 ,0,0
QUEENS,11370,40.76635,-73.88756,82 STREET                       ,0,0
QUEENS,11354,40.761547,-73.83113,37 AVENUE                       ,0,0
QUEENS,11101,40.744236,-73.92798,37 STREET                       ,0,0
QUEENS,11004,40.736176,-73.71372,LITTLE NECK PARKWAY             ,0,0
MANHATTAN,10002,40.717926,-73.98568,CLINTON STREET                  ,0,0
BROOKLYN,11223,40.606246999999996,-73.97645,QUENTIN ROAD                    ,1,0
QUEENS,11369,40.770332,-73.87608,94 STREET                       ,0,0
QUEENS,11426,40.729046000000004,-73.71643,87 DRIVE                        ,0,0
BROOKLYN,11208,40.680015999999995,-73.87743,LOGAN STREET                    ,0,0
BRONX,10457,40.850307,-73.886444,EAST 182 STREET                 ,0,0
STATEN ISLAND,10305,40.603615000000005,-74.06931,NARROWS ROAD SOUTH              ,0,0
BROOKLYN,11220,40.634617,-74.02353000000001,BAY RIDGE AVENUE                ,1,0
MANHATTAN,10011,40.73986,-73.995026,WEST 18 STREET                  ,0,0
MANHATTAN,10001,40.75458,-73.99915,WEST 34 STREET                  ,0,0
QUEENS,11421,40.69125,-73.85087,WOODHAVEN BOULEVARD             ,0,0
STATEN ISLAND,10305,40.58524,-74.093414,HYLAN BOULEVARD                 ,0,0
QUEENS,11434,40.667713,-73.77792,NORTH CONDUIT AVENUE            ,2,0
QUEENS,11422,40.664654,-73.73607,243 STREET                      ,0,0
MANHATTAN,10007,40.7163,-74.01097,CHAMBERS STREET                 ,0,0
MANHATTAN,10002,40.718792,-73.98902,DELANCEY STREET                 ,5,0
BROOKLYN,11201,40.702457,-73.98764,FRONT STREET                    ,0,0
BROOKLYN,11203,40.654434,-73.92139,LINDEN BOULEVARD                ,0,0
QUEENS,11355,40.75421,-73.810486,156 STREET                      ,1,0
BROOKLYN,11235,40.586346,-73.93144000000001,HARKNESS AVENUE                 ,0,0
MANHATTAN,10023,40.778605999999996,-73.98163000000001,AMSTERDAM AVENUE                ,1,0
BRONX,10454,40.80537,-73.92083000000001,MAJOR DEEGAN EXPRESSWAY         ,0,0
BRONX,10453,40.851044,-73.91488000000001,UNIVERSITY AVENUE               ,0,0
QUEENS,11434,40.683388,-73.79259,SUTPHIN BOULEVARD               ,1,0
QUEENS,11417,40.681087,-73.84634399999999,93 STREET                       ,0,0
QUEENS,11420,40.66612,-73.82225,LEFFERTS BOULEVARD              ,0,0
BRONX,10470,40.90522,-73.84751999999999,EAST 242 STREET                 ,0,0
QUEENS,11385,40.707091999999996,-73.89724,FRESH POND ROAD                 ,0,0
BROOKLYN,11236,40.6338,-73.8897,ROCKAWAY PARKWAY                ,0,0
MANHATTAN,10001,40.750828000000006,-74.00189,10 AVENUE                       ,0,0
BROOKLYN,11249,40.70166,-73.961464,WILLIAMSBURG STREET WEST        ,0,0
BROOKLYN,11216,40.671352,-73.956795,LINCOLN PLACE                   ,0,0
MANHATTAN,10011,40.739243,-73.99919,7 AVENUE                        ,0,0
QUEENS,11372,40.755554,-73.88537600000001,NORTHERN BOULEVARD              ,1,0
MANHATTAN,10019,40.762917,-73.98566,8 AVENUE                        ,0,0
MANHATTAN,10032,40.84231,-73.93515,WEST 172 STREET                 ,0,0
BROOKLYN,11233,40.676495,-73.91370400000001,ATLANTIC AVENUE                 ,0,0
STATEN ISLAND,10310,40.624522999999996,-74.11702,CLOVE ROAD                      ,0,0
BROOKLYN,11226,40.647870000000005,-73.95574,BEDFORD AVENUE                  ,0,0
QUEENS,11412,40.708595,-73.75962,199 STREET                      ,4,0
MANHATTAN,10011,40.742226,-73.99701999999999,7 AVENUE                        ,0,0
QUEENS,11691,40.595936,-73.73891400000001,BEACH 3 STREET                  ,0,0
QUEENS,11103,40.756718,-73.91422,BROADWAY                        ,1,0
QUEENS,11366,40.728027000000004,-73.80309,166 STREET                      ,2,0
BROOKLYN,11224,40.575413,-73.98347,SURF AVENUE                     ,0,0
QUEENS,11435,40.697872,-73.802376,150 STREET                      ,0,0
BROOKLYN,11224,40.575302,-73.98453,SURF AVENUE                     ,1,0
BRONX,10459,40.820984,-73.891624,EAST 163 STREET                 ,0,0
QUEENS,11417,40.667114,-73.83465600000001,NORTH CONDUIT AVENUE            ,0,0
BROOKLYN,11217,40.684395,-73.97835,ATLANTIC AVENUE                 ,0,0
BROOKLYN,11208,40.67239,-73.87463000000001,SUTTER AVENUE                   ,1,0
BROOKLYN,11226,40.652313,-73.95602,LINDEN BOULEVARD                ,0,0
QUEENS,11428,40.720863,-73.74251600000001,215 PLACE                       ,0,0
BROOKLYN,11233,40.669975,-73.91988,SAINT JOHNS PLACE               ,0,0
BROOKLYN,11212,40.656784,-73.91379,CHURCH AVENUE                   ,0,0
MANHATTAN,10013,40.715157,-74.00211999999999,CENTRE STREET                   ,0,0
MANHATTAN,10065,40.760536,-73.95836,EAST 62 STREET                  ,0,0
BROOKLYN,11234,40.618603,-73.93247,FLATBUSH AVENUE                 ,0,0
MANHATTAN,10016,40.747772,-73.985054,EAST 33 STREET                  ,0,0
BROOKLYN,11234,40.63021,-73.93294,EAST 45 STREET                  ,0,0
BROOKLYN,11203,40.66059,-73.931335,UTICA AVENUE                    ,0,0
MANHATTAN,10065,40.759640000000005,-73.95817,FDR DRIVE                       ,0,0
BRONX,10473,40.82408,-73.8429,LAFAYETTE AVENUE                ,1,0
BRONX,10453,40.861862,-73.91282,WEST FORDHAM ROAD               ,1,0
MANHATTAN,10002,40.718792,-73.98902,DELANCEY STREET                 ,0,0
BRONX,10461,40.85109,-73.84822,MORRIS PARK AVENUE              ,0,0
BROOKLYN,11211,40.711323,-73.94725,GRAND STREET                    ,0,0
BROOKLYN,11213,40.677772999999995,-73.93587,ATLANTIC AVENUE                 ,0,0
BRONX,10454,40.811977,-73.92373,ALEXANDER AVENUE                ,0,0
QUEENS,11428,40.725704,-73.74032,SPRINGFIELD BOULEVARD           ,0,0
QUEENS,11354,40.766308,-73.8197,35 AVENUE                       ,0,0
BROOKLYN,11232,40.657818,-74.004196,32 STREET                       ,0,0
BROOKLYN,11201,40.693047,-73.99074,REMSEN STREET                   ,0,0
BRONX,10453,40.84843,-73.91299000000001,DAVIDSON AVENUE                 ,0,0
MANHATTAN,10032,40.837074,-73.944305,WEST 161 STREET                 ,0,0
MANHATTAN,10022,40.759624,-73.970085,EAST 55 STREET                  ,1,0
MANHATTAN,10128,40.783359999999995,-73.95489,PARK AVENUE                     ,1,0
QUEENS,11419,40.682970000000005,-73.82824000000001,107 AVENUE                      ,0,0
BROOKLYN,11207,40.658577,-73.89063,PENNSYLVANIA AVENUE             ,2,0
STATEN ISLAND,10301,40.645472999999996,-74.09286999999999,RICHMOND TERRACE                ,0,0
QUEENS,11435,40.714935,-73.81636,MAIN STREET                     ,0,0
MANHATTAN,10003,40.733963,-73.988785,EAST 14 STREET                  ,0,0
BRONX,10458,40.86187,-73.89178000000001,EAST FORDHAM ROAD               ,0,0
BROOKLYN,11234,40.63554,-73.92284000000001,EAST 56 STREET                  ,0,0
QUEENS,11368,40.756004,-73.8634,105 STREET                      ,0,0
MANHATTAN,10021,40.767803,-73.95600999999999,EAST 72 STREET                  ,0,0
QUEENS,11433,40.701969500000004,-73.8018952,ARCHER AVENUE                   ,1,0
BROOKLYN,11229,40.616043,-73.94484,KINGS HIGHWAY                   ,0,0
BROOKLYN,11234,40.618603,-73.93247,FLATBUSH AVENUE                 ,0,0
BROOKLYN,11210,40.63406,-73.946815,GLENWOOD ROAD                   ,1,0
MANHATTAN,10027,40.81133,-73.96403000000001,RIVERSIDE DRIVE                 ,0,0
STATEN ISLAND,10305,40.59075,-74.08837,BURGHER AVENUE                  ,0,0
BROOKLYN,11217,40.684395,-73.97835,4 AVENUE                        ,0,0
MANHATTAN,10013,40.719395,-74.00189,CANAL STREET                    ,0,0
MANHATTAN,10011,40.742863,-74.003975,WEST 17 STREET                  ,1,0
BRONX,10462,40.833557,-73.85774,WESTCHESTER AVENUE              ,0,0
BROOKLYN,11219,40.639576,-73.99814599999999,10 AVENUE                       ,0,0
BROOKLYN,11208,40.679367,-73.879715,ATLANTIC AVENUE                 ,0,0
BROOKLYN,11220,40.62958,-74.01212,68 STREET                       ,0,0
BRONX,10461,40.84118,-73.8461,OVERING STREET                  ,0,0
STATEN ISLAND,10304,40.613777,-74.08359,SOBEL COURT                     ,0,0
BRONX,10460,40.846779999999995,-73.8838,EAST 181 STREET                 ,1,0
BROOKLYN,11234,40.619009999999996,-73.92588,AVENUE N                        ,0,0
BRONX,10467,40.884342,-73.886765,MOSHOLU PARKWAY                 ,0,0
QUEENS,11367,40.717674,-73.81713,UNION TURNPIKE                  ,0,0
BROOKLYN,11213,40.677483,-73.93033,UTICA AVENUE                    ,0,0
BROOKLYN,11210,40.625834999999995,-73.935356,AVENUE K                        ,0,0
QUEENS,11426,40.732890000000005,-73.72114,85 AVENUE                       ,0,0
QUEENS,11101,40.737675,-73.93024399999999,36 STREET                       ,0,0
BROOKLYN,11201,40.69212,-73.98435,DUFFIELD STREET                 ,0,0
BRONX,10451,40.8099,-73.92881,3 AVENUE                        ,0,0
BRONX,10452,40.83767,-73.91920999999999,GERARD AVENUE                   ,0,0
QUEENS,11358,40.76076,-73.79345,STATION ROAD                    ,0,0
BROOKLYN,11225,40.662945,-73.95379,ROGERS AVENUE                   ,0,0
BROOKLYN,11249,40.70113,-73.96087,WILLIAMSBURG STREET EAST        ,0,0
BRONX,10455,40.81304,-73.908165,EAST 149 STREET                 ,0,0
QUEENS,11101,40.74386,-73.94175,SKILLMAN AVENUE                 ,0,0
STATEN ISLAND,10301,40.63346,-74.076546,VANDUZER STREET                 ,0,0
QUEENS,11106,40.7632,-73.92109,31 AVENUE                       ,0,0
BRONX,10459,40.817875,-73.89333,BRUCKNER BOULEVARD              ,0,0
MANHATTAN,10025,40.79156,-73.968475,COLUMBUS AVENUE                 ,0,0
QUEENS,11355,40.75388,-73.82281,KISSENA BOULEVARD               ,0,0
QUEENS,11419,40.6854,-73.82947,LIBERTY AVENUE                  ,0,0
MANHATTAN,10022,40.764214,-73.97095999999999,MADISON AVENUE                  ,0,0
STATEN ISLAND,10305,40.57925,-74.07781,CAPODANNO BOULEVARD             ,0,0
MANHATTAN,10032,40.841084,-73.937935,WEST 169 STREET                 ,2,0
BRONX,10475,40.879979999999996,-73.83489,TILLOTSON AVENUE                ,1,0
QUEENS,11428,40.717762,-73.74565,213 STREET                      ,0,0
MANHATTAN,10013,40.719395,-74.00189,CANAL STREET                    ,0,0
BROOKLYN,11232,40.655986999999996,-74.002686,33 STREET                       ,0,0
QUEENS,11366,40.735079999999996,-73.7769,196 STREET                      ,0,0
QUEENS,11413,40.659843,-73.76002,221 STREET                      ,4,0
QUEENS,11379,40.713287,-73.87163000000001,METROPOLITAN AVENUE             ,0,0
BRONX,10475,40.881607,-73.83784,BOSTON ROAD                     ,0,0
QUEENS,11432,40.705826,-73.79397,MERRICK BOULEVARD               ,2,0
BROOKLYN,11235,40.58008,-73.95981,CONEY ISLAND AVENUE             ,0,0
BROOKLYN,11208,40.679543,-73.87105,MC KINLEY AVENUE                ,0,0
MANHATTAN,10030,40.821262899999994,-73.9460792,WEST 141 STREET                 ,2,0
BRONX,10451,40.826515,-73.917946,MORRIS AVENUE                   ,0,0
MANHATTAN,10022,40.762226,-73.96819,LEXINGTON AVENUE                ,0,0
BRONX,10451,40.8172,-73.93088,MAJOR DEEGAN EXPRESSWAY         ,0,0
BROOKLYN,11205,40.69321,-73.97188,MYRTLE AVENUE                   ,0,0
QUEENS,11365,40.730053000000005,-73.79353,UTOPIA PARKWAY                  ,0,0
BRONX,10464,40.850840000000005,-73.78825,CITY ISLAND AVENUE              ,2,0
BROOKLYN,11221,40.684703999999996,-73.94419,TOMPKINS AVENUE                 ,1,0
BROOKLYN,11222,40.724872999999995,-73.953445,NORMAN AVENUE                   ,1,0
BROOKLYN,11213,40.673256,-73.9307,UTICA AVENUE                    ,1,0
QUEENS,11372,40.754482,-73.8956,NORTHERN BOULEVARD              ,0,0
STATEN ISLAND,10306,40.55234,-74.13319399999999,BAY TERRACE                     ,3,0
QUEENS,11385,40.704212,-73.87617,78 AVENUE                       ,0,0
MANHATTAN,10001,40.745422,-73.990974,WEST 27 STREET                  ,0,0
MANHATTAN,10013,40.7171,-73.9986,CANAL STREET                    ,0,0
BROOKLYN,11201,40.68608,-73.99091,SMITH STREET                    ,1,0
STATEN ISLAND,10306,40.568764,-74.11149,HYLAN BOULEVARD                 ,0,0
BROOKLYN,11233,40.68372,-73.92016,MACDONOUGH STREET               ,0,0
BROOKLYN,11217,40.680267,-73.9747,FLATBUSH AVENUE                 ,0,0
BROOKLYN,11237,40.698807,-73.91837,MYRTLE AVENUE                   ,0,0
STATEN ISLAND,10306,40.577576,-74.10560600000001,LINCOLN AVENUE                  ,1,0
QUEENS,11415,40.704338,-73.82545,METROPOLITAN AVENUE             ,0,0
MANHATTAN,10013,40.717678,-74.00578,LEONARD STREET                  ,0,0
QUEENS,11369,40.764072,-73.86705,27 AVENUE                       ,1,0
QUEENS,11101,40.745235,-73.937706,THOMSON AVENUE                  ,0,0
QUEENS,11101,40.743179999999995,-73.95644,5 STREET                        ,0,0
QUEENS,11436,40.684090000000005,-73.80169000000001,LINDEN BOULEVARD                ,1,0
BROOKLYN,11203,40.64124,-73.943726,EAST 35 STREET                  ,0,0
QUEENS,11377,40.747623,-73.89658,69 STREET                       ,0,0
QUEENS,11364,40.731777,-73.77011,UNION TURNPIKE                  ,0,0
STATEN ISLAND,10308,40.54958,-74.137375,HYLAN BOULEVARD                 ,0,0
BRONX,10455,40.813084,-73.90419,EAST 150 STREET                 ,0,0
MANHATTAN,10036,40.75671,-73.986465,7 AVENUE                        ,0,0
QUEENS,11375,40.71717,-73.83497,QUEENS BOULEVARD                ,0,0
BROOKLYN,11229,40.603120000000004,-73.96055600000001,EAST 12 STREET                  ,0,0
STATEN ISLAND,10310,40.64289,-74.11386,RICHMOND TERRACE                ,0,0
MANHATTAN,10019,40.770313,-73.99141,WEST 57 STREET                  ,0,0
BROOKLYN,11212,40.663309999999996,-73.92106,WINTHROP STREET                 ,0,0
MANHATTAN,10002,40.71918,-73.99029,ALLEN STREET                    ,0,0
BROOKLYN,11203,40.65618,-73.93767,EAST 43 STREET                  ,0,0
QUEENS,11355,40.742134,-73.813,155 STREET                      ,0,0
STATEN ISLAND,10305,40.61246,-74.06933599999999,VERMONT AVENUE                  ,0,0
BROOKLYN,11207,40.667786,-73.88441999999999,DUMONT AVENUE                   ,2,0
MANHATTAN,10034,40.863018,-73.917564,WEST 206 STREET                 ,0,0
BRONX,10462,40.833366,-73.85139000000001,CASTLE HILL AVENUE              ,0,0
MANHATTAN,10025,40.792126,-73.97178000000001,AMSTERDAM AVENUE                ,1,0
MANHATTAN,10001,40.752686,-74.000534,10 AVENUE                       ,0,0
QUEENS,11385,40.702446,-73.90099000000001,CATALPA AVENUE                  ,2,0
QUEENS,11416,40.680878,-73.85792,81 STREET                       ,0,0
STATEN ISLAND,10304,40.60988,-74.08722,PIERCE STREET                   ,2,0
BROOKLYN,11230,40.62508,-73.962326,EAST 14 STREET                  ,0,0
BROOKLYN,11228,40.628204,-74.01286,70 STREET                       ,0,0
BROOKLYN,11208,40.685696,-73.87161,HEMLOCK STREET                  ,0,0
BROOKLYN,11233,40.673683000000004,-73.92214,SAINT MARKS AVENUE              ,0,0
STATEN ISLAND,10304,40.615105,-74.08476999999999,HILLSIDE AVENUE                 ,0,0
QUEENS,11367,40.740390000000005,-73.82209,148 STREET                      ,0,0
MANHATTAN,10011,40.747690000000006,-74.00417,WEST 23 STREET                  ,0,0
MANHATTAN,10018,40.758976000000004,-73.99394000000001,WEST 42 STREET                  ,0,0
BRONX,10454,40.807903,-73.92005,BROWN PLACE                     ,0,0
QUEENS,11101,40.748543,-73.94964,44 DRIVE                        ,0,0
BROOKLYN,11212,40.67131,-73.91309,EAST NEW YORK AVENUE            ,0,0
QUEENS,11434,40.68199,-73.788414,FOCH BOULEVARD                  ,1,0
QUEENS,11101,40.747124,-73.94239,JACKSON AVENUE                  ,0,0
QUEENS,11419,40.687225,-73.821625,LIBERTY AVENUE                  ,0,0
BRONX,10472,40.829229999999995,-73.87550999999999,STRATFORD AVENUE                ,1,0
BROOKLYN,11217,40.675095,-73.97504,7 AVENUE                        ,1,0
MANHATTAN,10036,40.755802,-73.98640400000001,WEST 42 STREET                  ,0,0
MANHATTAN,10001,40.750828000000006,-74.00189,10 AVENUE                       ,0,0
MANHATTAN,10016,40.746403,-73.97973,EAST 34 STREET                  ,1,0
QUEENS,11413,40.665634000000004,-73.758156,SPRINGFIELD BOULEVARD           ,0,0
BROOKLYN,11219,40.63163,-74.00774399999999,FORT HAMILTON PARKWAY           ,0,0
BROOKLYN,11218,40.63791,-73.97864,CORTELYOU ROAD                  ,2,0
MANHATTAN,10022,40.75928,-73.959274,EAST 60 STREET                  ,0,0
STATEN ISLAND,10304,40.6094,-74.09011,RICHMOND ROAD                   ,0,0
BROOKLYN,11218,40.6441,-73.96687,ARGYLE ROAD                     ,0,0
MANHATTAN,10172,40.755302,-73.97536,PARK AVENUE                     ,0,0
BROOKLYN,11203,40.637454999999996,-73.92886,UTICA AVENUE                    ,0,0
MANHATTAN,10027,40.809643,-73.947845,7 AVENUE                        ,0,0
MANHATTAN,10026,40.802486,-73.95679,WEST 113 STREET                 ,0,0
QUEENS,11694,40.581615,-73.85123399999999,BEACH CHANNEL DRIVE             ,3,0
BROOKLYN,11211,40.716778000000005,-73.93635,MORGAN AVENUE                   ,1,0
BROOKLYN,11229,40.58945,-73.92363,CYRUS AVENUE                    ,1,0
BROOKLYN,11207,40.65698,-73.88943,PENNSYLVANIA AVENUE             ,0,0
QUEENS,11375,40.71614,-73.83357,QUEENS BOULEVARD                ,0,0
QUEENS,11373,40.73482,-73.86686,94 STREET                       ,0,0
QUEENS,11422,40.672940000000004,-73.73711,135 AVENUE                      ,0,0
BRONX,10457,40.847908000000004,-73.90357,ANTHONY AVENUE                  ,0,0
QUEENS,11354,40.775257,-73.82181,146 STREET                      ,2,0
BRONX,10473,40.825455,-73.84954,STORY AVENUE                    ,0,0
QUEENS,11434,40.667522,-73.78063,NORTH CONDUIT AVENUE            ,1,0
QUEENS,11104,40.748816999999995,-73.91282,39 AVENUE                       ,0,0
MANHATTAN,10002,40.71975,-73.992165,DELANCEY STREET                 ,0,0
MANHATTAN,10036,40.757385,-73.98226,AVENUE OF THE AMERICAS          ,0,0
BROOKLYN,11207,40.659275,-73.889,LINDEN BOULEVARD                ,0,0
MANHATTAN,10011,40.746857,-74.008,11 AVENUE                       ,0,0
BRONX,10468,40.857418,-73.899956,GRAND CONCOURSE                 ,0,0
QUEENS,11434,40.672382,-73.78574,ROCKAWAY BOULEVARD              ,0,0
QUEENS,11691,40.59514,-73.754,BEACH 20 STREET                 ,0,0
QUEENS,11357,40.783333,-73.79459,16 ROAD                         ,0,0
BROOKLYN,11207,40.677208,-73.89723000000001,PENNSYLVANIA AVENUE             ,0,0
BROOKLYN,11233,40.68372,-73.92016,HOWARD AVENUE                   ,1,0
QUEENS,11385,40.699837,-73.90869,MYRTLE AVENUE                   ,1,0
BROOKLYN,11218,40.64611,-73.97078,CONEY ISLAND AVENUE             ,0,0
MANHATTAN,10001,40.752052,-74.000984,10 AVENUE                       ,0,0
MANHATTAN,10019,40.760456,-73.98374,7 AVENUE                        ,0,0
STATEN ISLAND,10304,40.59643,-74.091225,OLD TOWN ROAD                   ,0,0
BROOKLYN,11226,40.64295,-73.95356,EAST 25 STREET                  ,0,0
QUEENS,11414,40.650818,-73.83779,CROSS BAY BOULEVARD             ,0,0
QUEENS,11435,40.716843,-73.8167,MAIN STREET                     ,1,0
QUEENS,11691,40.592613,-73.77784,EDGEMERE AVENUE                 ,0,0
QUEENS,11101,40.739674,-73.934586,HUNTERS POINT AVENUE            ,0,0
BROOKLYN,11233,40.68121,-73.92243,RALPH AVENUE                    ,1,0
BROOKLYN,11226,40.65415,-73.949936,NOSTRAND AVENUE                 ,1,0
MANHATTAN,10018,40.75355,-73.98505,AVENUE OF THE AMERICAS          ,0,0
STATEN ISLAND,10304,40.61026,-74.09749599999999,MILFORD DRIVE                   ,0,0
MANHATTAN,10023,40.77178,-73.9792,WEST 65 STREET                  ,0,0
QUEENS,11423,40.724693,-73.76481,FRANCIS LEWIS BOULEVARD         ,0,0
QUEENS,11414,40.662796,-73.8388,157 AVENUE                      ,0,0
QUEENS,11367,40.74283,-73.83201,HORACE HARDING EXPRESSWAY       ,0,0
QUEENS,11418,40.707954,-73.83715,PARK LANE SOUTH                 ,1,0
BROOKLYN,11237,40.702045,-73.9156,GREENE AVENUE                   ,1,0
MANHATTAN,10040,40.858273,-73.93182,BROADWAY                        ,0,0
BROOKLYN,11219,40.636703000000004,-73.99038,46 STREET                       ,0,0
QUEENS,11435,40.70417,-73.81538,QUEENS BOULEVARD                ,1,0
BROOKLYN,11201,40.69365,-73.98333000000001,FLATBUSH AVENUE EXTENSION       ,0,0
QUEENS,11378,40.719856,-73.91049,GRAND AVENUE                    ,0,0
QUEENS,11412,40.693123,-73.752914,199 STREET                      ,1,0
BROOKLYN,11233,40.678276000000004,-73.91080500000001,ROCKAWAY AVENUE                 ,0,0
BROOKLYN,11203,40.648540000000004,-73.924255,KINGS HIGHWAY                   ,0,0
BROOKLYN,11219,40.634537,-74.003395,57 STREET                       ,0,0
MANHATTAN,10037,40.820434999999996,-73.93624,WEST 145 STREET                 ,2,0
QUEENS,11369,40.763664,-73.86778000000001,27 AVENUE                       ,0,0
BRONX,10465,40.81987,-73.81987,CALHOUN AVENUE                  ,0,0
BROOKLYN,11223,40.598312,-73.96119,CONEY ISLAND AVENUE             ,0,0
BROOKLYN,11205,40.689888,-73.96428,DE KALB AVENUE                  ,0,0
MANHATTAN,10010,40.7429,-73.99280999999999,AVENUE OF THE AMERICAS          ,0,0
QUEENS,11419,40.685806,-73.83259,103 AVENUE                      ,0,0
QUEENS,11691,40.59885,-73.74713,DAVIES ROAD                     ,0,0
BRONX,10453,40.861862,-73.91282,WEST FORDHAM ROAD               ,0,0
BROOKLYN,11230,40.623962,-73.97245,AVENUE J                        ,1,0
BROOKLYN,11213,40.668495,-73.925606,BUFFALO AVENUE                  ,0,0
BROOKLYN,11210,40.63615,-73.94993000000001,FARRAGUT ROAD                   ,0,0
BROOKLYN,11207,40.679478,-73.893936,ARLINGTON AVENUE                ,0,0
BRONX,10451,40.817,-73.93001600000001,EAST 144 STREET                 ,0,0
BROOKLYN,11234,40.61679,-73.92373,AVENUE O                        ,2,0
BROOKLYN,11237,40.705658,-73.93171,GRATTAN STREET                  ,0,0
QUEENS,11358,40.757797,-73.79494,NORTHERN BOULEVARD              ,1,0
MANHATTAN,10033,40.846725,-73.93563,SAINT NICHOLAS AVENUE           ,0,0
BRONX,10458,40.854973,-73.89251,EAST 183 STREET                 ,0,0
QUEENS,11434,40.667915,-73.77523000000001,NORTH CONDUIT AVENUE            ,2,0
BROOKLYN,11238,40.676632,-73.95944,SAINT MARKS AVENUE              ,0,0
QUEENS,11433,40.704033,-73.7938,165 STREET                      ,0,0
QUEENS,11354,40.760464,-73.826546,UNION STREET                    ,1,0
MANHATTAN,10040,40.856712,-73.93264,BROADWAY                        ,1,0
QUEENS,11368,40.752320000000005,-73.85959,108 STREET                      ,1,0
MANHATTAN,10023,40.78175,-73.98106999999999,BROADWAY                        ,1,0
MANHATTAN,10024,40.784355,-73.98116999999999,WEST END AVENUE                 ,0,0
BROOKLYN,11203,40.65661,-73.93091,UTICA AVENUE                    ,0,0
BRONX,10467,40.879745,-73.88467,JEROME AVENUE                   ,0,0
QUEENS,11420,40.66708,-73.81033000000001,130 STREET                      ,0,0
BROOKLYN,11208,40.679653,-73.88556,FULTON STREET                   ,1,0
MANHATTAN,10003,40.724274,-73.99082,2 AVENUE                        ,0,0
BROOKLYN,11232,40.654957,-74.00703399999999,37 STREET                       ,0,0
MANHATTAN,10009,40.723009999999995,-73.98576,EAST 2 STREET                   ,0,0
BROOKLYN,11226,40.652640000000005,-73.949776,NOSTRAND AVENUE                 ,0,0
BRONX,10462,40.832233,-73.85427,ELLIS AVENUE                    ,0,0
MANHATTAN,10031,40.821117,-73.957466,WEST 135 STREET                 ,0,0
BRONX,10451,40.817387,-73.92277,MORRIS AVENUE                   ,0,0
MANHATTAN,10022,40.759308000000004,-73.9653,EAST 57 STREET                  ,0,0
QUEENS,11368,40.757793,-73.86191600000001,NORTHERN BOULEVARD              ,0,0
QUEENS,11357,40.78884,-73.81381,14 AVENUE                       ,1,0
BROOKLYN,11203,40.651005,-73.94570999999999,EAST 34 STREET                  ,0,0
BROOKLYN,11234,40.61877,-73.929794,SCHENECTADY AVENUE              ,0,0
QUEENS,11101,40.745235,-73.937706,THOMSON AVENUE                  ,0,0
QUEENS,11416,40.68335,-73.8412,100 STREET                      ,0,0
BROOKLYN,11231,40.6742,-73.99984,HAMILTON AVENUE                 ,0,0
QUEENS,11369,40.761112,-73.86814,101 STREET                      ,0,0
BROOKLYN,11210,40.629505,-73.94416,FLATBUSH AVENUE                 ,1,0
QUEENS,11378,40.714424,-73.91424599999999,FLUSHING AVENUE                 ,0,0
QUEENS,11413,40.665478,-73.748795,SOUTH CONDUIT AVENUE            ,0,0
BROOKLYN,11212,40.65473,-73.90692,LINDEN BOULEVARD                ,0,0
BRONX,10459,40.826786,-73.892944,EAST 169 STREET                 ,3,0
BRONX,10462,40.845287,-73.858665,BRONXDALE AVENUE                ,1,0
BROOKLYN,11222,40.728992,-73.95067,MC GUINNESS BOULEVARD           ,0,0
BROOKLYN,11212,40.66077,-73.91975,KINGS HIGHWAY                   ,2,0
MANHATTAN,10017,40.749825,-73.972206,2 AVENUE                        ,0,0
MANHATTAN,10017,40.751746999999995,-73.97081,EAST 45 STREET                  ,0,0
MANHATTAN,10011,40.747690000000006,-74.00417,WEST 23 STREET                  ,0,0
QUEENS,11377,40.744938,-73.90959000000001,55 STREET                       ,0,0
BROOKLYN,11234,40.627983,-73.92493,FLATLANDS AVENUE                ,0,0
QUEENS,11374,40.711845000000004,-73.859764,WOODHAVEN BOULEVARD             ,2,0
BROOKLYN,11205,40.698463000000004,-73.960205,FLUSHING AVENUE                 ,0,0
BROOKLYN,11207,40.665034999999996,-73.89214,LIVONIA AVENUE                  ,0,0
MANHATTAN,10032,40.839294,-73.93925,AUDUBON AVENUE                  ,0,0
BRONX,10468,40.8666,-73.895454,EAST KINGSBRIDGE ROAD           ,0,0
MANHATTAN,10033,40.849297,-73.93897,WEST 179 STREET                 ,0,0
QUEENS,11691,40.605335,-73.75528,BEACH CHANNEL DRIVE             ,0,0
BROOKLYN,11204,40.621390000000005,-73.99555,66 STREET                       ,0,0
BROOKLYN,11214,40.600229999999996,-73.9956,BAY PARKWAY                     ,0,0
QUEENS,11364,40.731777,-73.77011,FRANCIS LEWIS BOULEVARD         ,0,0
QUEENS,11693,40.60644,-73.81953,CROSS BAY BOULEVARD             ,0,0
BROOKLYN,11209,40.62149,-74.02622,86 STREET                       ,0,0
QUEENS,11435,40.706978,-73.81306500000001,87 AVENUE                       ,0,0
BROOKLYN,11226,40.65175,-73.948685,MARTENSE STREET                 ,0,0
BROOKLYN,11220,40.642174,-74.02064,3 AVENUE                        ,0,0
BROOKLYN,11203,40.647114,-73.94338,BROOKLYN AVENUE                 ,0,0
BRONX,10463,40.88281,-73.91311,ARLINGTON AVENUE                ,1,0
MANHATTAN,10002,40.71975,-73.992165,DELANCEY STREET                 ,0,0
BRONX,10454,40.804840000000006,-73.912796,EAST 138 STREET                 ,0,0
BRONX,10473,40.826015000000005,-73.85959,WHITE PLAINS ROAD               ,1,0
QUEENS,11103,40.767204,-73.910095,42 STREET                       ,0,0
QUEENS,11361,40.764694,-73.76873,215 STREET                      ,0,0
MANHATTAN,10022,40.75613,-73.96761,2 AVENUE                        ,0,0
QUEENS,11101,40.746033000000004,-73.93441,QUEENS BOULEVARD                ,0,0
MANHATTAN,10013,40.71654,-73.996994,ELIZABETH STREET                ,0,0
BRONX,10452,40.832623,-73.92537,EAST 165 STREET                 ,0,0
BROOKLYN,11219,40.635727,-73.98422,15 AVENUE                       ,1,0
QUEENS,11372,40.756535,-73.876076,NORTHERN BOULEVARD              ,0,0
BROOKLYN,11225,40.66336,-73.95975,EMPIRE BOULEVARD                ,0,0
STATEN ISLAND,10306,40.566227000000005,-74.12025,TYSENS LANE                     ,1,0
QUEENS,11414,40.654156,-73.838646,CROSS BAY BOULEVARD             ,1,0
BROOKLYN,11230,40.635290000000005,-73.958206,OCEAN AVENUE                    ,0,0
BROOKLYN,11212,40.65417,-73.91375,EAST 96 STREET                  ,0,0
BROOKLYN,11233,40.680504,-73.92857,CHAUNCEY STREET                 ,1,0
QUEENS,11378,40.733532000000004,-73.895966,69 STREET                       ,0,0
BRONX,10467,40.88078,-73.88346999999999,EAST 208 STREET                 ,0,0
BROOKLYN,11222,40.724872999999995,-73.953445,GUERNSEY STREET                 ,0,0
BROOKLYN,11218,40.655037,-73.97848,11 AVENUE                       ,0,0
BROOKLYN,11210,40.62689,-73.945885,EAST 31 STREET                  ,0,0
MANHATTAN,10038,40.711746000000005,-74.006996,BEEKMAN STREET                  ,0,0
MANHATTAN,10011,40.745205,-74.00227,WEST 21 STREET                  ,0,0
BROOKLYN,11235,40.57812,-73.95902,BRIGHTON BEACH AVENUE           ,0,0
BROOKLYN,11207,40.662395000000004,-73.89921600000001,SNEDIKER AVENUE                 ,0,0
QUEENS,11367,40.72135,-73.81902,MAIN STREET                     ,0,0
BROOKLYN,11236,40.639786,-73.89358,AVENUE L                        ,1,0
BROOKLYN,11201,40.692234,-73.987305,JAY STREET                      ,0,0
QUEENS,11370,40.770984999999996,-73.89386,76 STREET                       ,0,0
QUEENS,11357,40.77539,-73.800995,163 STREET                      ,2,0
QUEENS,11374,40.72844,-73.87116,ALDERTON STREET                 ,0,0
QUEENS,11436,40.668156,-73.79726,135 AVENUE                      ,0,0
BROOKLYN,11238,40.678515999999995,-73.96390500000001,WASHINGTON AVENUE               ,0,0
BROOKLYN,11228,40.623688,-74.01467,76 STREET                       ,0,0
QUEENS,11377,40.74511,-73.90864,56 STREET                       ,1,0
BROOKLYN,11207,40.67175,-73.89685,SHEFFIELD AVENUE                ,0,0
MANHATTAN,10016,40.74668,-73.9745,2 AVENUE                        ,1,0
QUEENS,11428,40.725006,-73.74445,90 AVENUE                       ,0,0
MANHATTAN,10011,40.74889,-74.00703,WEST 23 STREET                  ,0,0
BROOKLYN,11226,40.63962,-73.95477,FLATBUSH AVENUE                 ,0,0
MANHATTAN,10028,40.776875,-73.94938,EAST 86 STREET                  ,0,0
BROOKLYN,11203,40.651646,-73.93233000000001,CHURCH AVENUE                   ,0,0
QUEENS,11373,40.747776,-73.882576,BAXTER AVENUE                   ,0,0
MANHATTAN,10065,40.76311,-73.962524,EAST 63 STREET                  ,0,0
BROOKLYN,11210,40.62334,-73.95595,OCEAN AVENUE                    ,0,0
MANHATTAN,10038,40.71329,-73.998184,SAINT JAMES PLACE               ,0,0
QUEENS,11418,40.69532,-73.82285,ATLANTIC AVENUE                 ,0,0
QUEENS,11375,40.71512,-73.83224,QUEENS BOULEVARD                ,1,0
BROOKLYN,11226,40.652145000000004,-73.95916,FLATBUSH AVENUE                 ,3,0
BROOKLYN,11213,40.667164,-73.93406999999999,SCHENECTADY AVENUE              ,0,0
BROOKLYN,11204,40.609512,-73.98957,BAY RIDGE PARKWAY               ,0,0
QUEENS,11358,40.757824,-73.79032,191 STREET                      ,0,0
MANHATTAN,10023,40.770573,-73.982155,WEST 62 STREET                  ,0,0
MANHATTAN,10001,40.749638,-73.99905,9 AVENUE                        ,0,0
QUEENS,11417,40.680164000000005,-73.84095,ROCKAWAY BOULEVARD              ,0,0
BROOKLYN,11212,40.663517,-73.90238000000001,LIVONIA AVENUE                  ,1,0
MANHATTAN,10028,40.774654,-73.9541,2 AVENUE                        ,0,0
BRONX,10473,40.824329999999996,-73.874374,BRUCKNER BOULEVARD              ,0,0
QUEENS,11377,40.739525,-73.92132600000001,48 AVENUE                       ,0,0
QUEENS,11369,40.763626,-73.88116,25 AVENUE                       ,0,0
BROOKLYN,11201,40.695908,-73.98321999999999,TILLARY STREET                  ,0,0
QUEENS,11378,40.72103,-73.904106,61 STREET                       ,0,0
BROOKLYN,11201,40.685448,-73.99134000000001,SMITH STREET                    ,0,0
MANHATTAN,10034,40.872498,-73.91718,WEST 218 STREET                 ,1,0
BROOKLYN,11231,40.67473,-74.00029,HAMILTON AVENUE                 ,0,0
BRONX,10468,40.859642,-73.899826,CRESTON AVENUE                  ,0,0
BROOKLYN,11230,40.620712,-73.95764,AVENUE L                        ,0,0
STATEN ISLAND,10304,40.600964000000005,-74.08921,STANWICH STREET                 ,0,0
BROOKLYN,11237,40.692547,-73.90736,KNICKERBOCKER AVENUE            ,0,0
QUEENS,11385,40.700497,-73.90021,FOREST AVENUE                   ,1,0
STATEN ISLAND,10306,40.570465000000006,-74.10977,HYLAN BOULEVARD                 ,1,0
MANHATTAN,10035,40.797676,-73.93729,EAST 117 STREET                 ,0,0
BROOKLYN,11235,40.586376,-73.9479,EAST 21 STREET                  ,0,0
MANHATTAN,10001,40.751446,-74.001434,WEST 29 STREET                  ,0,0
BROOKLYN,11234,40.622375,-73.91619,EAST 66 STREET                  ,0,0
BROOKLYN,11216,40.670124,-73.95528,EASTERN PARKWAY                 ,0,0
QUEENS,11385,40.700516,-73.89838,60 STREET                       ,0,0
QUEENS,11378,40.730362,-73.925415,55 AVENUE                       ,0,0
BROOKLYN,11219,40.638172,-73.98526,14 AVENUE                       ,0,0
MANHATTAN,10025,40.793377,-73.97086,AMSTERDAM AVENUE                ,0,0
BROOKLYN,11209,40.62149,-74.02622,86 STREET                       ,0,0
BROOKLYN,11210,40.61867,-73.95401,EAST 21 STREET                  ,0,0
MANHATTAN,10012,40.72162,-73.995476,MOTT STREET                     ,0,0
MANHATTAN,10013,40.719578000000006,-73.99806,GRAND STREET                    ,0,0
QUEENS,11365,40.737896,-73.79131,64 AVENUE                       ,0,0
BROOKLYN,11236,40.63701,-73.91495,EAST 80 STREET                  ,0,0
QUEENS,11372,40.75546,-73.88631,81 STREET                       ,0,0
BROOKLYN,11222,40.730270000000004,-73.953476,LEONARD STREET                  ,0,0
MANHATTAN,10011,40.742832,-74.00771,WEST 15 STREET                  ,0,0
BROOKLYN,11210,40.635815,-73.95343000000001,BEDFORD AVENUE                  ,0,0
BROOKLYN,11216,40.670124,-73.95528,EASTERN PARKWAY                 ,0,0
BROOKLYN,11213,40.66523,-73.931465,UTICA AVENUE                    ,0,0
BROOKLYN,11224,40.58153,-73.96734000000001,WEST AVENUE                     ,0,0
STATEN ISLAND,10306,40.570465000000006,-74.10977,HYLAN BOULEVARD                 ,0,0
BROOKLYN,11220,40.637465999999996,-74.02829,RIDGE BOULEVARD                 ,0,0
BROOKLYN,11224,40.577545,-73.99789,WEST 31 STREET                  ,0,0
MANHATTAN,10007,40.713924,-73.999565,WORTH STREET                    ,0,0
BROOKLYN,11233,40.67308,-73.91124,EASTERN PARKWAY                 ,0,0
MANHATTAN,10011,40.73603,-73.99781,AVENUE OF THE AMERICAS          ,1,0
BROOKLYN,11234,40.62357,-73.93561600000001,OVERBAUGH PLACE                 ,1,0
BRONX,10453,40.851902,-73.91645,WEST TREMONT AVENUE             ,0,0
MANHATTAN,10075,40.776309999999995,-73.96423,EAST 78 STREET                  ,0,0
BROOKLYN,11236,40.64715,-73.916214,EAST 88 STREET                  ,0,0
QUEENS,11372,40.749159999999996,-73.88991,76 STREET                       ,0,0
MANHATTAN,10010,40.741615,-73.99374399999999,WEST 21 STREET                  ,0,0
MANHATTAN,10001,40.758976000000004,-73.99394000000001,12 AVENUE                       ,0,0
BRONX,10470,40.895374,-73.86355999999999,EAST 233 STREET                 ,0,0
BROOKLYN,11238,40.674877,-73.96008,PARK PLACE                      ,0,0
MANHATTAN,10065,40.76311,-73.962524,2 AVENUE                        ,0,0
MANHATTAN,10016,40.74544,-73.9754,EAST 35 STREET                  ,0,0
BROOKLYN,11208,40.66638,-73.86109,FORBELL STREET                  ,0,0
MANHATTAN,10019,40.761720000000004,-73.98281,7 AVENUE                        ,0,0
STATEN ISLAND,10310,40.633995,-74.12415,CASTLETON AVENUE                ,0,0
BRONX,10454,40.808907,-73.92866500000001,MAJOR DEEGAN EXPRESSWAY         ,0,0
QUEENS,11373,40.734768,-73.87459,QUEENS BOULEVARD                ,0,0
BROOKLYN,11223,40.607018,-73.96289,KINGS HIGHWAY                   ,1,0
BROOKLYN,11210,40.62757,-73.93749,AVENUE J                        ,0,0
BRONX,10453,40.852641999999996,-73.908424,JEROME AVENUE                   ,0,0
BRONX,10463,40.88155,-73.9065,WEST 232 STREET                 ,0,0
QUEENS,11385,40.700592,-73.85457,WOODHAVEN BOULEVARD             ,0,0
BROOKLYN,11216,40.69024,-73.9482,MARCY AVENUE                    ,0,0
QUEENS,11004,40.750040000000006,-73.71069,264 STREET                      ,0,0
MANHATTAN,10021,40.769059999999996,-73.961105,3 AVENUE                        ,1,0
QUEENS,11101,40.75588,-73.92371,35 AVENUE                       ,0,0
BRONX,10466,40.883556,-73.84974,LACONIA AVENUE                  ,0,0
QUEENS,11434,40.666393,-73.764465,180 STREET                      ,0,0
BROOKLYN,11219,40.628098,-73.99575,14 AVENUE                       ,0,0
QUEENS,11416,40.688159999999996,-73.848854,ATLANTIC AVENUE                 ,1,0
BRONX,10475,40.868320000000004,-73.83317,EDSON AVENUE                    ,0,0
BRONX,10470,40.902042,-73.85155999999999,WHITE PLAINS ROAD               ,0,0
QUEENS,11354,40.764584,-73.815834,38 AVENUE                       ,0,0
BRONX,10459,40.820972,-73.892845,SIMPSON STREET                  ,0,0
MANHATTAN,10023,40.771667,-73.9867,AMSTERDAM AVENUE                ,0,0
QUEENS,11434,40.66684,-73.78941,150 STREET                      ,0,0
MANHATTAN,10009,40.724495000000005,-73.98164,EAST 6 STREET                   ,0,0
MANHATTAN,10032,40.84019,-73.94306999999999,WEST 165 STREET                 ,1,0
MANHATTAN,10033,40.846153,-73.932335,WEST 178 STREET                 ,0,0
QUEENS,11433,40.704853,-73.791664,168 STREET                      ,0,0
QUEENS,11361,40.761435999999996,-73.76995,43 AVENUE                       ,0,0
MANHATTAN,10001,40.752052,-74.000984,10 AVENUE                       ,0,0
QUEENS,11432,40.713924,-73.80212,164 STREET                      ,0,0
BRONX,10456,40.8291,-73.90554,EAST 167 STREET                 ,0,0
BROOKLYN,11224,40.578938,-73.98522,NEPTUNE AVENUE                  ,0,0
BROOKLYN,11249,40.718636,-73.95901500000001,NORTH 7 STREET                  ,0,0
BROOKLYN,11231,40.6843,-73.99724,DE GRAW STREET                  ,0,0
BROOKLYN,11214,40.599716,-74.00213000000001,BAY 25 STREET                   ,1,0
BROOKLYN,11237,40.706179999999996,-73.92846,GRATTAN STREET                  ,0,0
BROOKLYN,11212,40.66018,-73.91414,RIVERDALE AVENUE                ,2,0
BROOKLYN,11226,40.642826,-73.955505,EAST 23 STREET                  ,0,0
MANHATTAN,10011,40.74047,-73.99829,WEST 17 STREET                  ,0,0
QUEENS,11101,40.745815,-73.945656,JACKSON AVENUE                  ,0,0
QUEENS,11413,40.672707,-73.74788000000001,138 AVENUE                      ,1,0
QUEENS,11420,40.67054,-73.820885,LEFFERTS BOULEVARD              ,0,0
MANHATTAN,10009,40.734974,-73.97986999999999,1 AVENUE                        ,1,0
BROOKLYN,11235,40.587383,-73.95421999999999,EAST 15 STREET                  ,0,0
BROOKLYN,11213,40.671032000000004,-73.93927,ALBANY AVENUE                   ,0,0
BROOKLYN,11220,40.634617,-74.02353000000001,4 AVENUE                        ,0,0
BRONX,10455,40.820824,-73.91561999999999,EAST 156 STREET                 ,0,0
MANHATTAN,10014,40.733604,-74.00287,7 AVENUE SOUTH                  ,0,0
QUEENS,11101,40.740337,-73.93635,31 STREET                       ,0,0
MANHATTAN,10002,40.717921999999994,-73.9931,GRAND STREET                    ,1,0
BROOKLYN,11237,40.701485,-73.91143000000001,LINDEN STREET                   ,0,0
BROOKLYN,11226,40.652313,-73.95602,LINDEN BOULEVARD                ,0,0
MANHATTAN,10011,40.74649,-74.001335,9 AVENUE                        ,0,0
BROOKLYN,11219,40.63837,-73.997665,FORT HAMILTON PARKWAY           ,0,0
QUEENS,11367,40.719276,-73.81569,147 STREET                      ,1,0
BROOKLYN,11215,40.666077,-73.995224,3 AVENUE                        ,0,0
BRONX,10453,40.84919,-73.91729000000001,UNIVERSITY AVENUE               ,0,0
BROOKLYN,11208,40.682037,-73.87788,LOGAN STREET                    ,0,0
BROOKLYN,11220,40.640415000000004,-74.01162,56 STREET                       ,0,0
MANHATTAN,10002,40.717926,-73.98568,DELANCEY STREET                 ,0,0
BROOKLYN,11238,40.672413,-73.95734399999999,SAINT JOHNS PLACE               ,0,0
BROOKLYN,11226,40.648643,-73.96075,OCEAN AVENUE                    ,1,0
QUEENS,11004,40.747054999999996,-73.71194,260 STREET                      ,1,0
BROOKLYN,11219,40.63358,-74.00483,FORT HAMILTON PARKWAY           ,0,0
BROOKLYN,11211,40.715579999999996,-73.960144,BEDFORD AVENUE                  ,0,0
BROOKLYN,11211,40.711422,-73.95954,ROEBLING STREET                 ,1,0
BROOKLYN,11237,40.714207,-73.92817,METROPOLITAN AVENUE             ,4,0
BRONX,10455,40.815845,-73.89544000000001,BRUCKNER BOULEVARD              ,0,0
MANHATTAN,10016,40.747765,-73.98295999999999,EAST 34 STREET                  ,0,0
MANHATTAN,10013,40.722584000000005,-74.00636,CANAL STREET                    ,0,0
BROOKLYN,11205,40.698463000000004,-73.960205,FLUSHING AVENUE                 ,0,0
BRONX,10466,40.884735,-73.84045,CRAWFORD AVENUE                 ,0,0
QUEENS,11421,40.687164,-73.85231999999999,90 STREET                       ,0,0
BROOKLYN,11216,40.677353000000004,-73.94424000000001,PACIFIC STREET                  ,0,0
QUEENS,11411,40.690914,-73.72819,234 STREET                      ,0,0
QUEENS,11435,40.715706,-73.81023,150 STREET                      ,0,0
STATEN ISLAND,10310,40.626675,-74.12827,FOREST AVENUE                   ,0,0
BROOKLYN,11215,40.666077,-73.995224,17 STREET                       ,0,0
QUEENS,11420,40.67951,-73.81784,LINDEN BOULEVARD                ,0,0
MANHATTAN,10019,40.768436,-73.98906,10 AVENUE                       ,0,0
BROOKLYN,11238,40.67135,-73.96134,EASTERN PARKWAY                 ,0,0
BRONX,10462,40.852425,-73.86873,BRONX PARK EAST                 ,0,0
BRONX,10457,40.84747,-73.89134,EAST 179 STREET                 ,0,0
BROOKLYN,11212,40.663292,-73.92543,EAST 95 STREET                  ,0,0
MANHATTAN,10023,40.7736,-73.98158000000001,WEST 66 STREET                  ,0,0
BROOKLYN,11249,40.716972,-73.9608,NORTH 4 STREET                  ,0,0
MANHATTAN,10025,40.80399,-73.96033,WEST 113 STREET                 ,4,0
BROOKLYN,11213,40.679787,-73.93844,ALBANY AVENUE                   ,0,0
BROOKLYN,11207,40.682556,-73.8882,JAMAICA AVENUE                  ,1,0
MANHATTAN,10032,40.845366999999996,-73.94053000000001,WEST 173 STREET                 ,0,0
BROOKLYN,11219,40.637264,-73.9898,13 AVENUE                       ,0,0
BRONX,10460,40.840042,-73.863945,GUERLAIN STREET                 ,0,0
BROOKLYN,11220,40.642174,-74.02064,60 STREET                       ,0,0
MANHATTAN,10031,40.828309999999995,-73.94315,WEST 151 STREET                 ,0,0
BROOKLYN,11207,40.677357,-73.896225,FULTON STREET                   ,0,0
STATEN ISLAND,10305,40.59811,-74.06626999999999,MCCLEAN AVENUE                  ,0,0
MANHATTAN,10037,40.81467,-73.93623000000001,5 AVENUE                        ,1,0
QUEENS,11367,40.71991,-73.809044,PARSONS BOULEVARD               ,1,0
MANHATTAN,10002,40.71975,-73.992165,DELANCEY STREET                 ,0,0
BRONX,10459,40.824653999999995,-73.89194,WESTCHESTER AVENUE              ,0,0
BROOKLYN,11218,40.642044,-73.98124,CHURCH AVENUE                   ,1,0
QUEENS,11436,40.68261,-73.792885,149 STREET                      ,0,0
MANHATTAN,10037,40.810207,-73.93951,WEST 131 STREET                 ,0,0
BROOKLYN,11226,40.650387,-73.95872,CHURCH AVENUE                   ,0,0
QUEENS,11435,40.687527,-73.80279499999999,143 STREET                      ,1,0
MANHATTAN,10018,40.758976000000004,-73.99394000000001,WEST 42 STREET                  ,0,0
BROOKLYN,11219,40.639576,-73.99814599999999,48 STREET                       ,0,0
MANHATTAN,10010,40.7429,-73.99280999999999,AVENUE OF THE AMERICAS          ,0,0
MANHATTAN,10014,40.74002,-74.00529499999999,HUDSON STREET                   ,0,0
MANHATTAN,10033,40.84619,-73.93845999999999,BROADWAY                        ,0,0
BROOKLYN,11226,40.646846999999994,-73.95013399999999,EAST 29 STREET                  ,0,0
BROOKLYN,11217,40.67864,-73.97352,FLATBUSH AVENUE                 ,1,0
MANHATTAN,10011,40.74044,-73.9946,WEST 19 STREET                  ,1,0
QUEENS,11435,40.70792,-73.816826,139 STREET                      ,1,0
STATEN ISLAND,10306,40.575413,-74.11904,NEW DORP LANE                   ,0,0
BROOKLYN,11235,40.57741,-73.96236999999999,BRIGHTON BEACH AVENUE           ,0,0
BROOKLYN,11201,40.699978,-73.98779,SANDS STREET                    ,0,0
BROOKLYN,11203,40.64848,-73.92519,TILDEN AVENUE                   ,0,0
BROOKLYN,11238,40.681557,-73.966545,CLINTON AVENUE                  ,0,0
QUEENS,11694,40.581764,-73.83830999999999,BEACH CHANNEL DRIVE             ,0,0
QUEENS,11104,40.743046,-73.91776,47 STREET                       ,1,0
MANHATTAN,10024,40.782627000000005,-73.97499,COLUMBUS AVENUE                 ,0,0
MANHATTAN,10022,40.7606,-73.96434,EAST 59 STREET                  ,0,0
MANHATTAN,10033,40.848118,-73.93089,AMSTERDAM AVENUE                ,0,0
QUEENS,11427,40.7389,-73.73378000000001,WINCHESTER BOULEVARD            ,0,0
MANHATTAN,10017,40.75478,-73.97994,5 AVENUE                        ,1,0
MANHATTAN,10025,40.79913,-73.96667,AMSTERDAM AVENUE                ,0,0
BROOKLYN,11201,40.683956,-73.98956,BALTIC STREET                   ,0,0
BROOKLYN,11231,40.68443,-73.99491,COURT STREET                    ,0,0
MANHATTAN,10022,40.76093,-73.96914,LEXINGTON AVENUE                ,1,0
MANHATTAN,10005,40.707695,-74.01021,PINE STREET                     ,0,0
STATEN ISLAND,10306,40.579174,-74.11483,BANCROFT AVENUE                 ,0,0
BROOKLYN,11212,40.657803,-73.90868,CHESTER STREET                  ,0,0
BRONX,10455,40.81413,-73.90381,PROSPECT AVENUE                 ,1,0
BRONX,10457,40.838196,-73.901184,CLAREMONT PARKWAY               ,0,0
BRONX,10475,40.869495,-73.82619,BARTOW AVENUE                   ,1,0
BROOKLYN,11203,40.642254,-73.92742,AVENUE D                        ,1,0
BROOKLYN,11214,40.59727,-73.99868000000001,BAY PARKWAY                     ,0,0
BROOKLYN,11203,40.64213,-73.92936,UTICA AVENUE                    ,0,0
BROOKLYN,11229,40.607693,-73.960915,EAST 12 STREET                  ,0,0
QUEENS,11429,40.714787,-73.74164,217 STREET                      ,0,0
BROOKLYN,11249,40.717518,-73.96474,KENT AVENUE                     ,0,0
QUEENS,11372,40.75663,-73.87514499999999,NORTHERN BOULEVARD              ,1,0
QUEENS,11691,40.596096,-73.76975999999999,BEACH CHANNEL DRIVE             ,0,0
QUEENS,11416,40.68837,-73.84302,101 STREET                      ,0,0
BROOKLYN,11211,40.712709999999994,-73.96056,DRIGGS AVENUE                   ,0,0
MANHATTAN,10004,40.706657,-74.015915,WEST STREET                     ,0,0
BRONX,10473,40.818267999999996,-73.86998,SEWARD AVENUE                   ,0,0
BROOKLYN,11212,40.65905,-73.90026999999999,JUNIUS STREET                   ,0,0
MANHATTAN,10022,40.758537,-73.97721,5 AVENUE                        ,0,0
MANHATTAN,10027,40.813159999999996,-73.950356,WEST 129 STREET                 ,0,0
MANHATTAN,10011,40.745293,-73.9985,WEST 23 STREET                  ,0,0
QUEENS,11417,40.674557,-73.859604,NORTH CONDUIT AVENUE            ,0,0
QUEENS,11356,40.780148,-73.84603,COLLEGE POINT BOULEVARD         ,4,0
BROOKLYN,11226,40.63967,-73.963196,DORCHESTER ROAD                 ,0,0
STATEN ISLAND,10306,40.577946000000004,-74.102325,HYLAN BOULEVARD                 ,0,0
QUEENS,11422,40.635643,-73.74013000000001,ROCKAWAY BOULEVARD              ,0,0
QUEENS,11374,40.73251,-73.86827,ELIOT AVENUE                    ,0,0
BROOKLYN,11208,40.68632,-73.869095,RIDGEWOOD AVENUE                ,0,0
BROOKLYN,11220,40.638153,-74.01397,60 STREET                       ,3,0
BROOKLYN,11228,40.613895,-74.01051,14 AVENUE                       ,0,0
BROOKLYN,11208,40.679367,-73.879715,ATLANTIC AVENUE                 ,0,0
BROOKLYN,11226,40.65249,-73.95267,ROGERS AVENUE                   ,1,0
BROOKLYN,11203,40.65249,-73.92179,CHURCH AVENUE                   ,0,0
BROOKLYN,11210,40.624275,-73.94742600000001,AVENUE K                        ,0,0
BRONX,10469,40.87167,-73.8486,EAST GUN HILL ROAD              ,0,0
MANHATTAN,10024,40.79207,-73.97554000000001,WEST END AVENUE                 ,0,0
BROOKLYN,11220,40.636074,-74.00896,59 STREET                       ,0,0
MANHATTAN,10004,40.706657,-74.015915,WEST STREET                     ,0,0
QUEENS,11370,40.76501,-73.8871,ASTORIA BOULEVARD               ,0,0
BRONX,10473,40.825554,-73.843254,HERMANY AVENUE                  ,0,0
BRONX,10457,40.84633,-73.887344,PROSPECT AVENUE                 ,0,0
BRONX,10460,40.835705,-73.88875,SOUTHERN BOULEVARD              ,3,0
BRONX,10462,40.845287,-73.858665,VANNEST AVENUE                  ,0,0
MANHATTAN,10014,40.730446,-74.00431,BEDFORD STREET                  ,0,0
MANHATTAN,10002,40.713553999999995,-73.98085999999999,MADISON STREET                  ,0,0
QUEENS,11691,40.609535,-73.75372,BEACH CHANNEL DRIVE             ,1,0
MANHATTAN,10039,40.826088,-73.93584,7 AVENUE                        ,1,0
MANHATTAN,10075,40.77364,-73.95985999999999,LEXINGTON AVENUE                ,0,0
BROOKLYN,11210,40.62757,-73.93749,AVENUE J                        ,0,0
MANHATTAN,10025,40.795963,-73.97084,BROADWAY                        ,0,0
STATEN ISLAND,10304,40.613308,-74.08722,VANDUZER STREET                 ,0,0
QUEENS,11377,40.748993,-73.89686999999999,BROADWAY                        ,1,0
BRONX,10461,40.843376,-73.8369,WESTCHESTER AVENUE              ,0,0
BROOKLYN,11232,40.65433,-74.00742,3 AVENUE                        ,0,0
BRONX,10458,40.868317,-73.88189,WEBSTER AVENUE                  ,0,0
QUEENS,11004,40.75313,-73.71528,73 AVENUE                       ,1,0
BROOKLYN,11217,40.684143,-73.97303000000001,SOUTH OXFORD STREET             ,1,0
MANHATTAN,10000,40.791634,-73.96257,WEST DRIVE                      ,0,0
BRONX,10466,40.88527,-73.85511,EAST 224 STREET                 ,0,0
STATEN ISLAND,10309,40.529453000000004,-74.21100600000001,DRUMGOOLE ROAD EAST             ,4,0
BRONX,10456,40.830914,-73.92047,GRAND CONCOURSE                 ,1,0
MANHATTAN,10065,40.761173,-73.95789,EAST 63 STREET                  ,0,0
STATEN ISLAND,10306,40.572753999999996,-74.11404,NEW DORP LANE                   ,0,0
QUEENS,11434,40.667522,-73.78063,NORTH CONDUIT AVENUE            ,0,0
MANHATTAN,10002,40.723423,-73.99028,EAST HOUSTON STREET             ,1,0
MANHATTAN,10012,40.723022,-73.99882,BROADWAY                        ,1,0
BROOKLYN,11212,40.667365999999994,-73.92274,UNION STREET                    ,0,0
BROOKLYN,11231,40.684143,-73.99940500000001,SACKETT STREET                  ,2,0
BROOKLYN,11232,40.649376000000004,-74.0023,6 AVENUE                        ,0,0
QUEENS,11373,40.73675,-73.87767,QUEENS BOULEVARD                ,1,0
BROOKLYN,11230,40.611959999999996,-73.96816,OCEAN PARKWAY                   ,0,0
BROOKLYN,11206,40.69897,-73.95702,BEDFORD AVENUE                  ,3,0
MANHATTAN,10032,40.84394,-73.93903,WEST 172 STREET                 ,1,0
MANHATTAN,10033,40.84652,-73.94006999999999,WEST 175 STREET                 ,0,0
MANHATTAN,10023,40.772865,-73.98955,WEST END AVENUE                 ,0,0
MANHATTAN,10001,40.745422,-73.990974,AVENUE OF THE AMERICAS          ,0,0
BRONX,10466,40.898663,-73.848724,ELY AVENUE                      ,1,0
BRONX,10459,40.82193,-73.88844,BRUCKNER BOULEVARD              ,2,0
STATEN ISLAND,10308,40.5377,-74.15002,HYLAN BOULEVARD                 ,0,0
MANHATTAN,10017,40.7501,-73.97494499999999,3 AVENUE                        ,0,0
